{"obid":"niod:10046797","dcid":"10.17026\/dans-znm-g7tp","name":"Amsterdam","lat":"52.374","lng":"4.88969","exid":"http:\/\/sws.geonames.org\/2759794\/","cname":"Nederland","cexid":"http:\/\/sws.geonames.org\/2750405\/","pname":"Amsterdam","pexid":"http:\/\/sws.geonames.org\/2759794\/","mname":"Gemeente Amsterdam","mexid":"http:\/\/sws.geonames.org\/2759793\/","prname":"Noord-Holland","prexid":"http:\/\/sws.geonames.org\/2749879\/"}
{"obid":"niod:10046797","dcid":"10.17026\/dans-znm-g7tp","name":"Hollandsche Schouwburg","lat":"52.3664","lng":"4.91115","exid":"http:\/\/sws.geonames.org\/6951699\/","cname":"Nederland","cexid":"http:\/\/sws.geonames.org\/2750405\/","mname":"Amsterdam","mexid":"http:\/\/sws.geonames.org\/2759793\/","prname":"Noord-Holland","prexid":"http:\/\/sws.geonames.org\/2749879\/"}
{"obid":"niod:10046797","dcid":"10.17026\/dans-znm-g7tp","name":"Westerbork","lat":"52.85","lng":"6.60833","exid":"http:\/\/sws.geonames.org\/2744769\/","cname":"Nederland","cexid":"http:\/\/sws.geonames.org\/2750405\/","pname":"Westerbork","pexid":"http:\/\/sws.geonames.org\/2744769\/","mname":"Gemeente Midden-Drenthe","mexid":"http:\/\/sws.geonames.org\/6544297\/","prname":"Drenthe","prexid":"http:\/\/sws.geonames.org\/2756631\/"}
{"obid":"niod:10046797","dcid":"10.17026\/dans-znm-g7tp","name":"Kamp Vught","lat":"51.6656","lng":"5.2591","exid":"http:\/\/sws.geonames.org\/6620989\/","cname":"Nederland","cexid":"http:\/\/sws.geonames.org\/2750405\/","mname":"Vught","mexid":"http:\/\/sws.geonames.org\/2745153\/","prname":"Noord-Brabant","prexid":"http:\/\/sws.geonames.org\/2749990\/"}
{"obid":"niod:10046797","dcid":"10.17026\/dans-znm-g7tp","name":"Bergen-Belsen","lat":"52.7587","lng":"9.90657","exid":"http:\/\/sws.geonames.org\/3206558\/","cname":"Duitsland","cexid":"http:\/\/sws.geonames.org\/2921044\/"}
{"obid":"niod:10046797","dcid":"10.17026\/dans-znm-g7tp","name":"Zwitserland","lat":"47.0002","lng":"8.01427","exid":"http:\/\/sws.geonames.org\/2658434\/","cname":"Zwitserland","cexid":"http:\/\/sws.geonames.org\/2658434\/"}
{"obid":"niod:12761867","dcid":"https:\/\/easy.dans.knaw.nl\/ui\/datasets\/id\/easy-dataset:61437","name":"Nederlands-Indi\u00eb","lat":"-5","lng":"120","exid":"http:\/\/sws.geonames.org\/1643084\/","cname":"Indonesi\u00eb","cexid":"http:\/\/sws.geonames.org\/1643084\/"}
{"obid":"niod:12761867","dcid":"https:\/\/easy.dans.knaw.nl\/ui\/datasets\/id\/easy-dataset:61437","name":"Buitenzorg","lat":"-6.59444","lng":"106.789","exid":"http:\/\/sws.geonames.org\/1648473\/","cname":"Indonesi\u00eb","cexid":"http:\/\/sws.geonames.org\/1643084\/"}
{"obid":"niod:12761867","dcid":"https:\/\/easy.dans.knaw.nl\/ui\/datasets\/id\/easy-dataset:61437","name":"Bengkulu","lat":"-3.80044","lng":"102.266","exid":"http:\/\/sws.geonames.org\/1649150\/","cname":"Indonesi\u00eb","cexid":"http:\/\/sws.geonames.org\/1643084\/","pname":"Bengkulu","pexid":"http:\/\/sws.geonames.org\/1649150\/"}
{"obid":"niod:12761867","dcid":"https:\/\/easy.dans.knaw.nl\/ui\/datasets\/id\/easy-dataset:61437","name":"Den Haag","lat":"52.0767","lng":"4.29861","exid":"http:\/\/sws.geonames.org\/2747373\/","cname":"Nederland","cexid":"http:\/\/sws.geonames.org\/2750405\/","pname":"The Hague","pexid":"http:\/\/sws.geonames.org\/2747373\/","mname":"Gemeente Den Haag","mexid":"http:\/\/sws.geonames.org\/2747372\/","prname":"Zuid-Holland","prexid":"http:\/\/sws.geonames.org\/2743698\/"}
{"obid":"niod:12761867","dcid":"https:\/\/easy.dans.knaw.nl\/ui\/datasets\/id\/easy-dataset:61437","name":"Tjimahi","lat":"-6.87222","lng":"107.543","exid":"http:\/\/sws.geonames.org\/1646448\/","cname":"Indonesi\u00eb","cexid":"http:\/\/sws.geonames.org\/1643084\/"}
{"obid":"niod:12761867","dcid":"https:\/\/easy.dans.knaw.nl\/ui\/datasets\/id\/easy-dataset:61437","name":"Batavia","lat":"-6.21462","lng":"106.845","exid":"http:\/\/sws.geonames.org\/1642911\/","cname":"Indonesi\u00eb","cexid":"http:\/\/sws.geonames.org\/1643084\/"}
{"obid":"niod:12761867","dcid":"https:\/\/easy.dans.knaw.nl\/ui\/datasets\/id\/easy-dataset:61437","name":"Jakarta","lat":"-6.21462","lng":"106.845","exid":"http:\/\/sws.geonames.org\/1642911\/","cname":"Indonesi\u00eb","cexid":"http:\/\/sws.geonames.org\/1643084\/","pname":"Jakarta","pexid":"http:\/\/sws.geonames.org\/1642911\/"}
{"obid":"niod:12761867","dcid":"https:\/\/easy.dans.knaw.nl\/ui\/datasets\/id\/easy-dataset:61437","name":"Saigon","lat":"14.2667","lng":"21.1333","exid":"http:\/\/sws.geonames.org\/242059\/","cname":"Tsjaad","cexid":"http:\/\/sws.geonames.org\/2434508\/"}
{"obid":"niod:12761867","dcid":"https:\/\/easy.dans.knaw.nl\/ui\/datasets\/id\/easy-dataset:61437","name":"Japan","lat":"35.6854","lng":"139.753","exid":"http:\/\/sws.geonames.org\/1861060\/","cname":"Japan","cexid":"http:\/\/sws.geonames.org\/1861060\/"}
{"obid":"niod:12761867","dcid":"https:\/\/easy.dans.knaw.nl\/ui\/datasets\/id\/easy-dataset:61437","name":"China","lat":"35","lng":"105","exid":"http:\/\/sws.geonames.org\/1814991\/","cname":"China","cexid":"http:\/\/sws.geonames.org\/1814991\/"}
{"obid":"niod:12761867","dcid":"https:\/\/easy.dans.knaw.nl\/ui\/datasets\/id\/easy-dataset:61437","name":"Nagasaki","lat":"32.75","lng":"129.883","exid":"http:\/\/sws.geonames.org\/1856177\/","cname":"Japan","cexid":"http:\/\/sws.geonames.org\/1861060\/"}
{"obid":"niod:12761867","dcid":"https:\/\/easy.dans.knaw.nl\/ui\/datasets\/id\/easy-dataset:61437","name":"Balikpapan","lat":"-1.26753","lng":"116.829","exid":"http:\/\/sws.geonames.org\/1650527\/","cname":"Indonesi\u00eb","cexid":"http:\/\/sws.geonames.org\/1643084\/","pname":"Balikpapan","pexid":"http:\/\/sws.geonames.org\/1650527\/"}
{"obid":"niod:12761867","dcid":"https:\/\/easy.dans.knaw.nl\/ui\/datasets\/id\/easy-dataset:61437","name":"Makassar","lat":"-5.14","lng":"119.422","exid":"http:\/\/sws.geonames.org\/1622786\/","cname":"Indonesi\u00eb","cexid":"http:\/\/sws.geonames.org\/1643084\/","pname":"Makassar","pexid":"http:\/\/sws.geonames.org\/1622786\/"}
{"obid":"niod:12761868","dcid":"https:\/\/easy.dans.knaw.nl\/ui\/datasets\/id\/easy-dataset:61439","name":"Nederlands-Indi\u00eb","lat":"-5","lng":"120","exid":"http:\/\/sws.geonames.org\/1643084\/","cname":"Indonesi\u00eb","cexid":"http:\/\/sws.geonames.org\/1643084\/"}
{"obid":"niod:12761868","dcid":"https:\/\/easy.dans.knaw.nl\/ui\/datasets\/id\/easy-dataset:61439","name":"Leiden","lat":"52.1583","lng":"4.49306","exid":"http:\/\/sws.geonames.org\/2751773\/","cname":"Nederland","cexid":"http:\/\/sws.geonames.org\/2750405\/","pname":"Leiden","pexid":"http:\/\/sws.geonames.org\/2751773\/","mname":"Gemeente Leiden","mexid":"http:\/\/sws.geonames.org\/2751772\/","prname":"Zuid-Holland","prexid":"http:\/\/sws.geonames.org\/2743698\/"}
{"obid":"niod:12761869","dcid":"https:\/\/easy.dans.knaw.nl\/ui\/datasets\/id\/easy-dataset:61438","name":"Nederlands-Indi\u00eb","lat":"-5","lng":"120","exid":"http:\/\/sws.geonames.org\/1643084\/","cname":"Indonesi\u00eb","cexid":"http:\/\/sws.geonames.org\/1643084\/"}
{"obid":"niod:12761869","dcid":"https:\/\/easy.dans.knaw.nl\/ui\/datasets\/id\/easy-dataset:61438","name":"Salatiga","lat":"-7.33194","lng":"110.493","exid":"http:\/\/sws.geonames.org\/1629131\/","cname":"Indonesi\u00eb","cexid":"http:\/\/sws.geonames.org\/1643084\/","pname":"Salatiga","pexid":"http:\/\/sws.geonames.org\/1629131\/"}
{"obid":"niod:12761869","dcid":"https:\/\/easy.dans.knaw.nl\/ui\/datasets\/id\/easy-dataset:61438","name":"Madoera","lat":"-7","lng":"113.333","exid":"http:\/\/sws.geonames.org\/1636914\/","cname":"Indonesi\u00eb","cexid":"http:\/\/sws.geonames.org\/1643084\/"}
{"obid":"niod:12761869","dcid":"https:\/\/easy.dans.knaw.nl\/ui\/datasets\/id\/easy-dataset:61438","name":"Lawang","lat":"-7.8353","lng":"112.695","exid":"http:\/\/sws.geonames.org\/1638284\/","cname":"Indonesi\u00eb","cexid":"http:\/\/sws.geonames.org\/1643084\/","pname":"Lawang","pexid":"http:\/\/sws.geonames.org\/1638284\/"}
{"obid":"niod:12761869","dcid":"https:\/\/easy.dans.knaw.nl\/ui\/datasets\/id\/easy-dataset:61438","name":"Semarang","lat":"-6.9932","lng":"110.42","exid":"http:\/\/sws.geonames.org\/1627896\/","cname":"Indonesi\u00eb","cexid":"http:\/\/sws.geonames.org\/1643084\/","pname":"Semarang","pexid":"http:\/\/sws.geonames.org\/1627896\/"}
{"obid":"niod:12761869","dcid":"https:\/\/easy.dans.knaw.nl\/ui\/datasets\/id\/easy-dataset:61438","name":"Batavia","lat":"-6.21462","lng":"106.845","exid":"http:\/\/sws.geonames.org\/1642911\/","cname":"Indonesi\u00eb","cexid":"http:\/\/sws.geonames.org\/1643084\/"}
{"obid":"niod:12761869","dcid":"https:\/\/easy.dans.knaw.nl\/ui\/datasets\/id\/easy-dataset:61438","name":"Barneveld","lat":"52.14","lng":"5.58472","exid":"http:\/\/sws.geonames.org\/2759407\/","cname":"Nederland","cexid":"http:\/\/sws.geonames.org\/2750405\/","pname":"Barneveld","pexid":"http:\/\/sws.geonames.org\/2759407\/","mname":"Gemeente Barneveld","mexid":"http:\/\/sws.geonames.org\/2759406\/","prname":"Gelderland","prexid":"http:\/\/sws.geonames.org\/2755634\/"}
{"obid":"niod:12761869","dcid":"https:\/\/easy.dans.knaw.nl\/ui\/datasets\/id\/easy-dataset:61438","name":"Nijmegen","lat":"51.8425","lng":"5.85278","exid":"http:\/\/sws.geonames.org\/2750053\/","cname":"Nederland","cexid":"http:\/\/sws.geonames.org\/2750405\/","pname":"Nijmegen","pexid":"http:\/\/sws.geonames.org\/2750053\/","mname":"Gemeente Nijmegen","mexid":"http:\/\/sws.geonames.org\/2750052\/","prname":"Gelderland","prexid":"http:\/\/sws.geonames.org\/2755634\/"}
{"obid":"niod:12761869","dcid":"https:\/\/easy.dans.knaw.nl\/ui\/datasets\/id\/easy-dataset:61438","name":"Harlingen","lat":"53.1748","lng":"5.42244","exid":"http:\/\/sws.geonames.org\/2754817\/","cname":"Nederland","cexid":"http:\/\/sws.geonames.org\/2750405\/","pname":"Harlingen","pexid":"http:\/\/sws.geonames.org\/2754817\/","mname":"Gemeente Harlingen","mexid":"http:\/\/sws.geonames.org\/2754816\/","prname":"Friesland","prexid":"http:\/\/sws.geonames.org\/2755812\/"}
{"obid":"niod:12761869","dcid":"https:\/\/easy.dans.knaw.nl\/ui\/datasets\/id\/easy-dataset:61438","name":"Indonesi\u00eb","lat":"-5","lng":"120","exid":"http:\/\/sws.geonames.org\/1643084\/","cname":"Indonesi\u00eb","cexid":"http:\/\/sws.geonames.org\/1643084\/"}
{"obid":"niod:12761869","dcid":"https:\/\/easy.dans.knaw.nl\/ui\/datasets\/id\/easy-dataset:61438","name":"Soerabaja","lat":"-7.24917","lng":"112.751","exid":"http:\/\/sws.geonames.org\/1625822\/","cname":"Indonesi\u00eb","cexid":"http:\/\/sws.geonames.org\/1643084\/"}
{"obid":"niod:12761869","dcid":"https:\/\/easy.dans.knaw.nl\/ui\/datasets\/id\/easy-dataset:61438","name":"Zuidlaren","lat":"53.0942","lng":"6.68194","exid":"http:\/\/sws.geonames.org\/2743680\/","cname":"Nederland","cexid":"http:\/\/sws.geonames.org\/2750405\/","pname":"Zuidlaren","pexid":"http:\/\/sws.geonames.org\/2743680\/","mname":"Gemeente Tynaarlo","mexid":"http:\/\/sws.geonames.org\/6544282\/","prname":"Drenthe","prexid":"http:\/\/sws.geonames.org\/2756631\/"}
{"obid":"niod:12761870","dcid":"https:\/\/easy.dans.knaw.nl\/ui\/datasets\/id\/easy-dataset:61440","name":"Nederlands-Indi\u00eb","lat":"-5","lng":"120","exid":"http:\/\/sws.geonames.org\/1643084\/","cname":"Indonesi\u00eb","cexid":"http:\/\/sws.geonames.org\/1643084\/"}
{"obid":"niod:12761870","dcid":"https:\/\/easy.dans.knaw.nl\/ui\/datasets\/id\/easy-dataset:61440","name":"Soerabaja","lat":"-7.24917","lng":"112.751","exid":"http:\/\/sws.geonames.org\/1625822\/","cname":"Indonesi\u00eb","cexid":"http:\/\/sws.geonames.org\/1643084\/"}
{"obid":"niod:12761870","dcid":"https:\/\/easy.dans.knaw.nl\/ui\/datasets\/id\/easy-dataset:61440","name":"Batavia","lat":"-6.21462","lng":"106.845","exid":"http:\/\/sws.geonames.org\/1642911\/","cname":"Indonesi\u00eb","cexid":"http:\/\/sws.geonames.org\/1643084\/"}
{"obid":"niod:12761870","dcid":"https:\/\/easy.dans.knaw.nl\/ui\/datasets\/id\/easy-dataset:61440","name":"Singapore","lat":"1.36667","lng":"103.8","exid":"http:\/\/sws.geonames.org\/1880251\/","cname":"Singapore","cexid":"http:\/\/sws.geonames.org\/1880251\/"}
{"obid":"niod:12761870","dcid":"https:\/\/easy.dans.knaw.nl\/ui\/datasets\/id\/easy-dataset:61440","name":"Vlissingen","lat":"51.4425","lng":"3.57361","exid":"http:\/\/sws.geonames.org\/2745392\/","cname":"Nederland","cexid":"http:\/\/sws.geonames.org\/2750405\/","pname":"Vlissingen","pexid":"http:\/\/sws.geonames.org\/2745392\/","mname":"Gemeente Vlissingen","mexid":"http:\/\/sws.geonames.org\/2745391\/","prname":"Zeeland","prexid":"http:\/\/sws.geonames.org\/2744011\/"}
{"obid":"niod:12761870","dcid":"https:\/\/easy.dans.knaw.nl\/ui\/datasets\/id\/easy-dataset:61440","name":"Delft","lat":"52.0067","lng":"4.35556","exid":"http:\/\/sws.geonames.org\/2757345\/","cname":"Nederland","cexid":"http:\/\/sws.geonames.org\/2750405\/","pname":"Delft","pexid":"http:\/\/sws.geonames.org\/2757345\/","mname":"Gemeente Delft","mexid":"http:\/\/sws.geonames.org\/2757344\/","prname":"Zuid-Holland","prexid":"http:\/\/sws.geonames.org\/2743698\/"}
{"obid":"niod:12761871","dcid":"https:\/\/easy.dans.knaw.nl\/ui\/datasets\/id\/easy-dataset:61436","name":"Nederlands-Indi\u00eb","lat":"-5","lng":"120","exid":"http:\/\/sws.geonames.org\/1643084\/","cname":"Indonesi\u00eb","cexid":"http:\/\/sws.geonames.org\/1643084\/"}
{"obid":"niod:12761871","dcid":"https:\/\/easy.dans.knaw.nl\/ui\/datasets\/id\/easy-dataset:61436","name":"Zuid-Sumatra","lat":"-2.75","lng":"103.833","exid":"http:\/\/sws.geonames.org\/1626196\/","cname":"Indonesi\u00eb","cexid":"http:\/\/sws.geonames.org\/1643084\/"}
{"obid":"niod:12761871","dcid":"https:\/\/easy.dans.knaw.nl\/ui\/datasets\/id\/easy-dataset:61436","name":"Batavia","lat":"-6.21462","lng":"106.845","exid":"http:\/\/sws.geonames.org\/1642911\/","cname":"Indonesi\u00eb","cexid":"http:\/\/sws.geonames.org\/1643084\/"}
{"obid":"niod:12761871","dcid":"https:\/\/easy.dans.knaw.nl\/ui\/datasets\/id\/easy-dataset:61436","name":"Palembang","lat":"-2.91673","lng":"104.746","exid":"http:\/\/sws.geonames.org\/1633070\/","cname":"Indonesi\u00eb","cexid":"http:\/\/sws.geonames.org\/1643084\/","pname":"Palembang","pexid":"http:\/\/sws.geonames.org\/1633070\/"}
{"obid":"niod:12761871","dcid":"https:\/\/easy.dans.knaw.nl\/ui\/datasets\/id\/easy-dataset:61436","name":"Amsterdam","lat":"52.374","lng":"4.88969","exid":"http:\/\/sws.geonames.org\/2759794\/","cname":"Nederland","cexid":"http:\/\/sws.geonames.org\/2750405\/","pname":"Amsterdam","pexid":"http:\/\/sws.geonames.org\/2759794\/","mname":"Gemeente Amsterdam","mexid":"http:\/\/sws.geonames.org\/2759793\/","prname":"Noord-Holland","prexid":"http:\/\/sws.geonames.org\/2749879\/"}
{"obid":"niod:12761871","dcid":"https:\/\/easy.dans.knaw.nl\/ui\/datasets\/id\/easy-dataset:61436","name":"Amersfoort","lat":"52.155","lng":"5.3875","exid":"http:\/\/sws.geonames.org\/2759821\/","cname":"Nederland","cexid":"http:\/\/sws.geonames.org\/2750405\/","pname":"Amersfoort","pexid":"http:\/\/sws.geonames.org\/2759821\/","mname":"Gemeente Amersfoort","mexid":"http:\/\/sws.geonames.org\/2759820\/","prname":"Utrecht","prexid":"http:\/\/sws.geonames.org\/2745909\/"}
{"obid":"niod:12761871","dcid":"https:\/\/easy.dans.knaw.nl\/ui\/datasets\/id\/easy-dataset:61436","name":"Deventer","lat":"52.255","lng":"6.16389","exid":"http:\/\/sws.geonames.org\/2756987\/","cname":"Nederland","cexid":"http:\/\/sws.geonames.org\/2750405\/","pname":"Deventer","pexid":"http:\/\/sws.geonames.org\/2756987\/","mname":"Gemeente Deventer","mexid":"http:\/\/sws.geonames.org\/2756986\/","prname":"Overijssel","prexid":"http:\/\/sws.geonames.org\/2748838\/"}
{"obid":"niod:12761871","dcid":"https:\/\/easy.dans.knaw.nl\/ui\/datasets\/id\/easy-dataset:61436","name":"Suriname","lat":"4","lng":"-56","exid":"http:\/\/sws.geonames.org\/3382998\/","cname":"Suriname","cexid":"http:\/\/sws.geonames.org\/3382998\/"}
{"obid":"niod:12761871","dcid":"https:\/\/easy.dans.knaw.nl\/ui\/datasets\/id\/easy-dataset:61436","name":"Nieuw-Guinea","lat":"-4.75","lng":"138","exid":"http:\/\/sws.geonames.org\/1643012\/","cname":"Indonesi\u00eb","cexid":"http:\/\/sws.geonames.org\/1643084\/"}
{"obid":"niod:12761912","dcid":"https:\/\/easy.dans.knaw.nl\/ui\/datasets\/id\/easy-dataset:61433","name":"Nederlands-Indi\u00eb","lat":"-5","lng":"120","exid":"http:\/\/sws.geonames.org\/1643084\/","cname":"Indonesi\u00eb","cexid":"http:\/\/sws.geonames.org\/1643084\/"}
{"obid":"niod:12761912","dcid":"https:\/\/easy.dans.knaw.nl\/ui\/datasets\/id\/easy-dataset:61433","name":"Batavia","lat":"-6.21462","lng":"106.845","exid":"http:\/\/sws.geonames.org\/1642911\/","cname":"Indonesi\u00eb","cexid":"http:\/\/sws.geonames.org\/1643084\/"}
{"obid":"niod:12761912","dcid":"https:\/\/easy.dans.knaw.nl\/ui\/datasets\/id\/easy-dataset:61433","name":"Sukabumi","lat":"-6.91806","lng":"106.927","exid":"http:\/\/sws.geonames.org\/1626381\/","cname":"Indonesi\u00eb","cexid":"http:\/\/sws.geonames.org\/1643084\/","pname":"Sukabumi","pexid":"http:\/\/sws.geonames.org\/1626381\/"}
{"obid":"niod:12761912","dcid":"https:\/\/easy.dans.knaw.nl\/ui\/datasets\/id\/easy-dataset:61433","name":"Malang","lat":"-7.9797","lng":"112.63","exid":"http:\/\/sws.geonames.org\/1636722\/","cname":"Indonesi\u00eb","cexid":"http:\/\/sws.geonames.org\/1643084\/","pname":"Malang","pexid":"http:\/\/sws.geonames.org\/1636722\/"}
{"obid":"niod:12761912","dcid":"https:\/\/easy.dans.knaw.nl\/ui\/datasets\/id\/easy-dataset:61433","name":"Singapore","lat":"1.36667","lng":"103.8","exid":"http:\/\/sws.geonames.org\/1880251\/","cname":"Singapore","cexid":"http:\/\/sws.geonames.org\/1880251\/"}
{"obid":"niod:12761912","dcid":"https:\/\/easy.dans.knaw.nl\/ui\/datasets\/id\/easy-dataset:61433","name":"Thailand","lat":"15.5","lng":"101","exid":"http:\/\/sws.geonames.org\/1605651\/","cname":"Thailand","cexid":"http:\/\/sws.geonames.org\/1605651\/"}
{"obid":"niod:12761912","dcid":"https:\/\/easy.dans.knaw.nl\/ui\/datasets\/id\/easy-dataset:61433","name":"Soerabaja","lat":"-7.24917","lng":"112.751","exid":"http:\/\/sws.geonames.org\/1625822\/","cname":"Indonesi\u00eb","cexid":"http:\/\/sws.geonames.org\/1643084\/"}
{"obid":"niod:12761912","dcid":"https:\/\/easy.dans.knaw.nl\/ui\/datasets\/id\/easy-dataset:61433","name":"Nederland","lat":"52.25","lng":"5.75","exid":"http:\/\/sws.geonames.org\/2750405\/","cname":"Nederland","cexid":"http:\/\/sws.geonames.org\/2750405\/"}
{"obid":"niod:12761912","dcid":"https:\/\/easy.dans.knaw.nl\/ui\/datasets\/id\/easy-dataset:61433","name":"Nieuw-Guinea","lat":"-4.75","lng":"138","exid":"http:\/\/sws.geonames.org\/1643012\/","cname":"Indonesi\u00eb","cexid":"http:\/\/sws.geonames.org\/1643084\/"}
{"obid":"niod:12761913","dcid":"https:\/\/easy.dans.knaw.nl\/ui\/datasets\/id\/easy-dataset:61432","name":"Nederlands-Indi\u00eb","lat":"-5","lng":"120","exid":"http:\/\/sws.geonames.org\/1643084\/","cname":"Indonesi\u00eb","cexid":"http:\/\/sws.geonames.org\/1643084\/"}
{"obid":"niod:12761913","dcid":"https:\/\/easy.dans.knaw.nl\/ui\/datasets\/id\/easy-dataset:61432","name":"Salatiga","lat":"-7.33194","lng":"110.493","exid":"http:\/\/sws.geonames.org\/1629131\/","cname":"Indonesi\u00eb","cexid":"http:\/\/sws.geonames.org\/1643084\/","pname":"Salatiga","pexid":"http:\/\/sws.geonames.org\/1629131\/"}
{"obid":"niod:12761913","dcid":"https:\/\/easy.dans.knaw.nl\/ui\/datasets\/id\/easy-dataset:61432","name":"Midden-Java","lat":"-7.5","lng":"110","exid":"http:\/\/sws.geonames.org\/1642669\/","cname":"Indonesi\u00eb","cexid":"http:\/\/sws.geonames.org\/1643084\/"}
{"obid":"niod:12761913","dcid":"https:\/\/easy.dans.knaw.nl\/ui\/datasets\/id\/easy-dataset:61432","name":"Bandoeng","lat":"-6.92222","lng":"107.607","exid":"http:\/\/sws.geonames.org\/1650357\/","cname":"Indonesi\u00eb","cexid":"http:\/\/sws.geonames.org\/1643084\/"}
{"obid":"niod:12761913","dcid":"https:\/\/easy.dans.knaw.nl\/ui\/datasets\/id\/easy-dataset:61432","name":"Singapore","lat":"1.36667","lng":"103.8","exid":"http:\/\/sws.geonames.org\/1880251\/","cname":"Singapore","cexid":"http:\/\/sws.geonames.org\/1880251\/"}
{"obid":"niod:12761913","dcid":"https:\/\/easy.dans.knaw.nl\/ui\/datasets\/id\/easy-dataset:61432","name":"Buitenzorg","lat":"-6.59444","lng":"106.789","exid":"http:\/\/sws.geonames.org\/1648473\/","cname":"Indonesi\u00eb","cexid":"http:\/\/sws.geonames.org\/1643084\/"}
{"obid":"niod:12761913","dcid":"https:\/\/easy.dans.knaw.nl\/ui\/datasets\/id\/easy-dataset:61432","name":"Batavia","lat":"-6.21462","lng":"106.845","exid":"http:\/\/sws.geonames.org\/1642911\/","cname":"Indonesi\u00eb","cexid":"http:\/\/sws.geonames.org\/1643084\/"}
{"obid":"niod:12761913","dcid":"https:\/\/easy.dans.knaw.nl\/ui\/datasets\/id\/easy-dataset:61432","name":"Palembang","lat":"-2.91673","lng":"104.746","exid":"http:\/\/sws.geonames.org\/1633070\/","cname":"Indonesi\u00eb","cexid":"http:\/\/sws.geonames.org\/1643084\/","pname":"Palembang","pexid":"http:\/\/sws.geonames.org\/1633070\/"}
{"obid":"niod:12761913","dcid":"https:\/\/easy.dans.knaw.nl\/ui\/datasets\/id\/easy-dataset:61432","name":"Padang","lat":"-0.94924","lng":"100.354","exid":"http:\/\/sws.geonames.org\/1633419\/","cname":"Indonesi\u00eb","cexid":"http:\/\/sws.geonames.org\/1643084\/","pname":"Padang","pexid":"http:\/\/sws.geonames.org\/1633419\/"}
{"obid":"niod:12761913","dcid":"https:\/\/easy.dans.knaw.nl\/ui\/datasets\/id\/easy-dataset:61432","name":"Rotterdam","lat":"51.9225","lng":"4.47917","exid":"http:\/\/sws.geonames.org\/2747891\/","cname":"Nederland","cexid":"http:\/\/sws.geonames.org\/2750405\/","pname":"Rotterdam","pexid":"http:\/\/sws.geonames.org\/2747891\/","mname":"Gemeente Rotterdam","mexid":"http:\/\/sws.geonames.org\/2747890\/","prname":"Zuid-Holland","prexid":"http:\/\/sws.geonames.org\/2743698\/"}
{"obid":"niod:12761913","dcid":"https:\/\/easy.dans.knaw.nl\/ui\/datasets\/id\/easy-dataset:61432","name":"Kamp Westerbork","lat":"52.9167","lng":"6.60808","exid":"http:\/\/sws.geonames.org\/11184993\/","cname":"Nederland","cexid":"http:\/\/sws.geonames.org\/2750405\/","mname":"Midden-Drenthe","mexid":"http:\/\/sws.geonames.org\/6544297\/","prname":"Drenthe","prexid":"http:\/\/sws.geonames.org\/2756631\/"}
{"obid":"niod:12761914","dcid":"https:\/\/easy.dans.knaw.nl\/ui\/datasets\/id\/easy-dataset:61434","name":"Nederlands-Indi\u00eb","lat":"-5","lng":"120","exid":"http:\/\/sws.geonames.org\/1643084\/","cname":"Indonesi\u00eb","cexid":"http:\/\/sws.geonames.org\/1643084\/"}
{"obid":"niod:12761914","dcid":"https:\/\/easy.dans.knaw.nl\/ui\/datasets\/id\/easy-dataset:61434","name":"Genua","lat":"44.4264","lng":"8.91519","exid":"http:\/\/sws.geonames.org\/3176219\/","cname":"Itali\u00eb","cexid":"http:\/\/sws.geonames.org\/3175395\/"}
{"obid":"niod:12761914","dcid":"https:\/\/easy.dans.knaw.nl\/ui\/datasets\/id\/easy-dataset:61434","name":"Batavia","lat":"-6.21462","lng":"106.845","exid":"http:\/\/sws.geonames.org\/1642911\/","cname":"Indonesi\u00eb","cexid":"http:\/\/sws.geonames.org\/1643084\/"}
{"obid":"niod:12761914","dcid":"https:\/\/easy.dans.knaw.nl\/ui\/datasets\/id\/easy-dataset:61434","name":"Soerabaja","lat":"-7.24917","lng":"112.751","exid":"http:\/\/sws.geonames.org\/1625822\/","cname":"Indonesi\u00eb","cexid":"http:\/\/sws.geonames.org\/1643084\/"}
{"obid":"niod:12761914","dcid":"https:\/\/easy.dans.knaw.nl\/ui\/datasets\/id\/easy-dataset:61434","name":"Singapore","lat":"1.36667","lng":"103.8","exid":"http:\/\/sws.geonames.org\/1880251\/","cname":"Singapore","cexid":"http:\/\/sws.geonames.org\/1880251\/"}
{"obid":"niod:12761914","dcid":"https:\/\/easy.dans.knaw.nl\/ui\/datasets\/id\/easy-dataset:61434","name":"Birma","lat":"21","lng":"96","exid":"http:\/\/sws.geonames.org\/1327865\/","cname":"Myanmar","cexid":"http:\/\/sws.geonames.org\/1327865\/"}
{"obid":"niod:12761914","dcid":"https:\/\/easy.dans.knaw.nl\/ui\/datasets\/id\/easy-dataset:61434","name":"Saigon","lat":"14.2667","lng":"21.1333","exid":"http:\/\/sws.geonames.org\/242059\/","cname":"Tsjaad","cexid":"http:\/\/sws.geonames.org\/2434508\/"}
{"obid":"niod:12761914","dcid":"https:\/\/easy.dans.knaw.nl\/ui\/datasets\/id\/easy-dataset:61434","name":"Zwolle","lat":"52.5125","lng":"6.09444","exid":"http:\/\/sws.geonames.org\/2743477\/","cname":"Nederland","cexid":"http:\/\/sws.geonames.org\/2750405\/","mname":"Zwolle","mexid":"http:\/\/sws.geonames.org\/2743476\/","prname":"Overijssel","prexid":"http:\/\/sws.geonames.org\/2748838\/"}
{"obid":"niod:12761915","dcid":"https:\/\/easy.dans.knaw.nl\/ui\/datasets\/id\/easy-dataset:61435","name":"Nederlands-Indi\u00eb","lat":"-5","lng":"120","exid":"http:\/\/sws.geonames.org\/1643084\/","cname":"Indonesi\u00eb","cexid":"http:\/\/sws.geonames.org\/1643084\/"}
{"obid":"niod:12761915","dcid":"https:\/\/easy.dans.knaw.nl\/ui\/datasets\/id\/easy-dataset:61435","name":"Tjimahi","lat":"-6.87222","lng":"107.543","exid":"http:\/\/sws.geonames.org\/1646448\/","cname":"Indonesi\u00eb","cexid":"http:\/\/sws.geonames.org\/1643084\/"}
{"obid":"niod:12761915","dcid":"https:\/\/easy.dans.knaw.nl\/ui\/datasets\/id\/easy-dataset:61435","name":"Makassar","lat":"-5.14","lng":"119.422","exid":"http:\/\/sws.geonames.org\/1622786\/","cname":"Indonesi\u00eb","cexid":"http:\/\/sws.geonames.org\/1643084\/","pname":"Makassar","pexid":"http:\/\/sws.geonames.org\/1622786\/"}
{"obid":"niod:12761915","dcid":"https:\/\/easy.dans.knaw.nl\/ui\/datasets\/id\/easy-dataset:61435","name":"Bandoeng","lat":"-6.92222","lng":"107.607","exid":"http:\/\/sws.geonames.org\/1650357\/","cname":"Indonesi\u00eb","cexid":"http:\/\/sws.geonames.org\/1643084\/"}
{"obid":"niod:12761915","dcid":"https:\/\/easy.dans.knaw.nl\/ui\/datasets\/id\/easy-dataset:61435","name":"Breda","lat":"51.5866","lng":"4.77596","exid":"http:\/\/sws.geonames.org\/2758401\/","cname":"Nederland","cexid":"http:\/\/sws.geonames.org\/2750405\/","mname":"Breda","mexid":"http:\/\/sws.geonames.org\/2758400\/","prname":"Noord-Brabant","prexid":"http:\/\/sws.geonames.org\/2749990\/"}
{"obid":"niod:12761915","dcid":"https:\/\/easy.dans.knaw.nl\/ui\/datasets\/id\/easy-dataset:61435","name":"Marseille","lat":"43.297","lng":"5.38107","exid":"http:\/\/sws.geonames.org\/2995469\/","cname":"Frankrijk","cexid":"http:\/\/sws.geonames.org\/3017382\/","pname":"Marseille","pexid":"http:\/\/sws.geonames.org\/2995469\/"}
{"obid":"niod:12761915","dcid":"https:\/\/easy.dans.knaw.nl\/ui\/datasets\/id\/easy-dataset:61435","name":"Batavia","lat":"-6.21462","lng":"106.845","exid":"http:\/\/sws.geonames.org\/1642911\/","cname":"Indonesi\u00eb","cexid":"http:\/\/sws.geonames.org\/1643084\/"}
{"obid":"niod:12761915","dcid":"https:\/\/easy.dans.knaw.nl\/ui\/datasets\/id\/easy-dataset:61435","name":"Padang","lat":"-0.94924","lng":"100.354","exid":"http:\/\/sws.geonames.org\/1633419\/","cname":"Indonesi\u00eb","cexid":"http:\/\/sws.geonames.org\/1643084\/","pname":"Padang","pexid":"http:\/\/sws.geonames.org\/1633419\/"}
{"obid":"niod:12761915","dcid":"https:\/\/easy.dans.knaw.nl\/ui\/datasets\/id\/easy-dataset:61435","name":"Nederland","lat":"52.25","lng":"5.75","exid":"http:\/\/sws.geonames.org\/2750405\/","cname":"Nederland","cexid":"http:\/\/sws.geonames.org\/2750405\/"}
{"obid":"niod:12761916","dcid":"10.17026\/dans-x7y-jkch","name":"Kampen","lat":"52.555","lng":"5.91111","exid":"http:\/\/sws.geonames.org\/2753106\/","cname":"Nederland","cexid":"http:\/\/sws.geonames.org\/2750405\/","mname":"Kampen","mexid":"http:\/\/sws.geonames.org\/2753104\/","prname":"Overijssel","prexid":"http:\/\/sws.geonames.org\/2748838\/"}
{"obid":"niod:12761916","dcid":"10.17026\/dans-x7y-jkch","name":"Rotterdam","lat":"51.9225","lng":"4.47917","exid":"http:\/\/sws.geonames.org\/2747891\/","cname":"Nederland","cexid":"http:\/\/sws.geonames.org\/2750405\/","pname":"Rotterdam","pexid":"http:\/\/sws.geonames.org\/2747891\/","mname":"Gemeente Rotterdam","mexid":"http:\/\/sws.geonames.org\/2747890\/","prname":"Zuid-Holland","prexid":"http:\/\/sws.geonames.org\/2743698\/"}
{"obid":"niod:12761994","dcid":"https:\/\/easy.dans.knaw.nl\/ui\/datasets\/id\/easy-dataset:61431","name":"Nederlands-Indi\u00eb","lat":"-5","lng":"120","exid":"http:\/\/sws.geonames.org\/1643084\/","cname":"Indonesi\u00eb","cexid":"http:\/\/sws.geonames.org\/1643084\/"}
{"obid":"niod:12761994","dcid":"https:\/\/easy.dans.knaw.nl\/ui\/datasets\/id\/easy-dataset:61431","name":"Soerabaja","lat":"-7.24917","lng":"112.751","exid":"http:\/\/sws.geonames.org\/1625822\/","cname":"Indonesi\u00eb","cexid":"http:\/\/sws.geonames.org\/1643084\/"}
{"obid":"niod:12761994","dcid":"https:\/\/easy.dans.knaw.nl\/ui\/datasets\/id\/easy-dataset:61431","name":"Batavia","lat":"-6.21462","lng":"106.845","exid":"http:\/\/sws.geonames.org\/1642911\/","cname":"Indonesi\u00eb","cexid":"http:\/\/sws.geonames.org\/1643084\/"}
{"obid":"niod:12761994","dcid":"https:\/\/easy.dans.knaw.nl\/ui\/datasets\/id\/easy-dataset:61431","name":"Bandoeng","lat":"-6.92222","lng":"107.607","exid":"http:\/\/sws.geonames.org\/1650357\/","cname":"Indonesi\u00eb","cexid":"http:\/\/sws.geonames.org\/1643084\/"}
{"obid":"niod:12761994","dcid":"https:\/\/easy.dans.knaw.nl\/ui\/datasets\/id\/easy-dataset:61431","name":"Callantsoog","lat":"52.84","lng":"4.69583","exid":"http:\/\/sws.geonames.org\/2758027\/","cname":"Nederland","cexid":"http:\/\/sws.geonames.org\/2750405\/","pname":"Callantsoog","pexid":"http:\/\/sws.geonames.org\/2758027\/","mname":"Gemeente Schagen","mexid":"http:\/\/sws.geonames.org\/2747719\/","prname":"Noord-Holland","prexid":"http:\/\/sws.geonames.org\/2749879\/"}
{"obid":"niod:12761994","dcid":"https:\/\/easy.dans.knaw.nl\/ui\/datasets\/id\/easy-dataset:61431","name":"Leiden","lat":"52.1583","lng":"4.49306","exid":"http:\/\/sws.geonames.org\/2751773\/","cname":"Nederland","cexid":"http:\/\/sws.geonames.org\/2750405\/","pname":"Leiden","pexid":"http:\/\/sws.geonames.org\/2751773\/","mname":"Gemeente Leiden","mexid":"http:\/\/sws.geonames.org\/2751772\/","prname":"Zuid-Holland","prexid":"http:\/\/sws.geonames.org\/2743698\/"}
{"obid":"niod:12761994","dcid":"https:\/\/easy.dans.knaw.nl\/ui\/datasets\/id\/easy-dataset:61431","name":"Kampen","lat":"52.555","lng":"5.91111","exid":"http:\/\/sws.geonames.org\/2753106\/","cname":"Nederland","cexid":"http:\/\/sws.geonames.org\/2750405\/","mname":"Kampen","mexid":"http:\/\/sws.geonames.org\/2753104\/","prname":"Overijssel","prexid":"http:\/\/sws.geonames.org\/2748838\/"}
{"obid":"niod:12761994","dcid":"https:\/\/easy.dans.knaw.nl\/ui\/datasets\/id\/easy-dataset:61431","name":"Suriname","lat":"4","lng":"-56","exid":"http:\/\/sws.geonames.org\/3382998\/","cname":"Suriname","cexid":"http:\/\/sws.geonames.org\/3382998\/"}
{"obid":"niod:12762520","dcid":"10.17026\/dans-xsr-sk9m","name":"Kamp Westerbork","lat":"52.9167","lng":"6.60808","exid":"http:\/\/sws.geonames.org\/11184993\/","cname":"Nederland","cexid":"http:\/\/sws.geonames.org\/2750405\/","mname":"Midden-Drenthe","mexid":"http:\/\/sws.geonames.org\/6544297\/","prname":"Drenthe","prexid":"http:\/\/sws.geonames.org\/2756631\/"}
{"obid":"niod:12762520","dcid":"10.17026\/dans-xsr-sk9m","name":"Theresienstadt","lat":"50.511","lng":"14.1505","exid":"http:\/\/sws.geonames.org\/3064268\/","cname":"Tsjechi\u00eb","cexid":"http:\/\/sws.geonames.org\/3077311\/"}
{"obid":"niod:2760192","dcid":"10.17026\/dans-zxv-vv7w","name":"Venlo","lat":"51.37","lng":"6.16806","exid":"http:\/\/sws.geonames.org\/2745641\/","cname":"Nederland","cexid":"http:\/\/sws.geonames.org\/2750405\/","pname":"Venlo","pexid":"http:\/\/sws.geonames.org\/2745641\/","mname":"Gemeente Venlo","mexid":"http:\/\/sws.geonames.org\/2745640\/","prname":"Limburg","prexid":"http:\/\/sws.geonames.org\/2751596\/"}
{"obid":"niod:2760192","dcid":"10.17026\/dans-zxv-vv7w","name":"Sevenum","lat":"51.4125","lng":"6.0375","exid":"http:\/\/sws.geonames.org\/2747382\/","cname":"Nederland","cexid":"http:\/\/sws.geonames.org\/2750405\/","pname":"Sevenum","pexid":"http:\/\/sws.geonames.org\/2747382\/","mname":"Gemeente Horst aan de Maas","mexid":"http:\/\/sws.geonames.org\/6544233\/","prname":"Limburg","prexid":"http:\/\/sws.geonames.org\/2751596\/"}
{"obid":"niod:2760193","dcid":"10.17026\/dans-zyu-maqy","name":"Venlo","lat":"51.37","lng":"6.16806","exid":"http:\/\/sws.geonames.org\/2745641\/","cname":"Nederland","cexid":"http:\/\/sws.geonames.org\/2750405\/","pname":"Venlo","pexid":"http:\/\/sws.geonames.org\/2745641\/","mname":"Gemeente Venlo","mexid":"http:\/\/sws.geonames.org\/2745640\/","prname":"Limburg","prexid":"http:\/\/sws.geonames.org\/2751596\/"}
{"obid":"niod:2760193","dcid":"10.17026\/dans-zyu-maqy","name":"Duisburg","lat":"51.4325","lng":"6.76516","exid":"http:\/\/sws.geonames.org\/2934691\/","cname":"Duitsland","cexid":"http:\/\/sws.geonames.org\/2921044\/","pname":"Duisburg","pexid":"http:\/\/sws.geonames.org\/2934691\/"}
{"obid":"niod:2760193","dcid":"10.17026\/dans-zyu-maqy","name":"Ommen","lat":"52.5208","lng":"6.42083","exid":"http:\/\/sws.geonames.org\/2749613\/","cname":"Nederland","cexid":"http:\/\/sws.geonames.org\/2750405\/","pname":"Ommen","pexid":"http:\/\/sws.geonames.org\/2749613\/","mname":"Ommen","mexid":"http:\/\/sws.geonames.org\/2749611\/","prname":"Overijssel","prexid":"http:\/\/sws.geonames.org\/2748838\/"}
{"obid":"niod:2760193","dcid":"10.17026\/dans-zyu-maqy","name":"Amersfoort","lat":"52.155","lng":"5.3875","exid":"http:\/\/sws.geonames.org\/2759821\/","cname":"Nederland","cexid":"http:\/\/sws.geonames.org\/2750405\/","pname":"Amersfoort","pexid":"http:\/\/sws.geonames.org\/2759821\/","mname":"Gemeente Amersfoort","mexid":"http:\/\/sws.geonames.org\/2759820\/","prname":"Utrecht","prexid":"http:\/\/sws.geonames.org\/2745909\/"}
{"obid":"niod:2760194","dcid":"10.17026\/dans-24h-epub","name":"Venlo","lat":"51.37","lng":"6.16806","exid":"http:\/\/sws.geonames.org\/2745641\/","cname":"Nederland","cexid":"http:\/\/sws.geonames.org\/2750405\/","pname":"Venlo","pexid":"http:\/\/sws.geonames.org\/2745641\/","mname":"Gemeente Venlo","mexid":"http:\/\/sws.geonames.org\/2745640\/","prname":"Limburg","prexid":"http:\/\/sws.geonames.org\/2751596\/"}
{"obid":"niod:2760194","dcid":"10.17026\/dans-24h-epub","name":"Groningen","lat":"53.2192","lng":"6.56667","exid":"http:\/\/sws.geonames.org\/2755251\/","cname":"Nederland","cexid":"http:\/\/sws.geonames.org\/2750405\/","pname":"Groningen","pexid":"http:\/\/sws.geonames.org\/2755251\/","mname":"Gemeente Groningen","mexid":"http:\/\/sws.geonames.org\/2755250\/","prname":"Groningen","prexid":"http:\/\/sws.geonames.org\/2755249\/"}
{"obid":"niod:2760195","dcid":"10.17026\/dans-x8b-7xcb","name":"Venlo","lat":"51.37","lng":"6.16806","exid":"http:\/\/sws.geonames.org\/2745641\/","cname":"Nederland","cexid":"http:\/\/sws.geonames.org\/2750405\/","pname":"Venlo","pexid":"http:\/\/sws.geonames.org\/2745641\/","mname":"Gemeente Venlo","mexid":"http:\/\/sws.geonames.org\/2745640\/","prname":"Limburg","prexid":"http:\/\/sws.geonames.org\/2751596\/"}
{"obid":"niod:2760196","dcid":"10.17026\/dans-zt9-54j6","name":"Blerick","lat":"51.3717","lng":"6.14861","exid":"http:\/\/sws.geonames.org\/2758831\/","cname":"Nederland","cexid":"http:\/\/sws.geonames.org\/2750405\/","pname":"Blerick","pexid":"http:\/\/sws.geonames.org\/2758831\/","mname":"Venlo","mexid":"http:\/\/sws.geonames.org\/2745640\/","prname":"Limburg","prexid":"http:\/\/sws.geonames.org\/2751596\/"}
{"obid":"niod:2760196","dcid":"10.17026\/dans-zt9-54j6","name":"Volkel","lat":"51.6425","lng":"5.65417","exid":"http:\/\/sws.geonames.org\/2745338\/","cname":"Nederland","cexid":"http:\/\/sws.geonames.org\/2750405\/","pname":"Volkel","pexid":"http:\/\/sws.geonames.org\/2745338\/","mname":"Gemeente Uden","mexid":"http:\/\/sws.geonames.org\/2746004\/","prname":"Noord-Brabant","prexid":"http:\/\/sws.geonames.org\/2749990\/"}
{"obid":"niod:2760197","dcid":"10.17026\/dans-zw6-v3yx","name":"Venlo","lat":"51.37","lng":"6.16806","exid":"http:\/\/sws.geonames.org\/2745641\/","cname":"Nederland","cexid":"http:\/\/sws.geonames.org\/2750405\/","pname":"Venlo","pexid":"http:\/\/sws.geonames.org\/2745641\/","mname":"Gemeente Venlo","mexid":"http:\/\/sws.geonames.org\/2745640\/","prname":"Limburg","prexid":"http:\/\/sws.geonames.org\/2751596\/"}
{"obid":"niod:2760197","dcid":"10.17026\/dans-zw6-v3yx","name":"Sevenum","lat":"51.4125","lng":"6.0375","exid":"http:\/\/sws.geonames.org\/2747382\/","cname":"Nederland","cexid":"http:\/\/sws.geonames.org\/2750405\/","pname":"Sevenum","pexid":"http:\/\/sws.geonames.org\/2747382\/","mname":"Gemeente Horst aan de Maas","mexid":"http:\/\/sws.geonames.org\/6544233\/","prname":"Limburg","prexid":"http:\/\/sws.geonames.org\/2751596\/"}
{"obid":"niod:2760197","dcid":"10.17026\/dans-zw6-v3yx","name":"Blerick","lat":"51.3717","lng":"6.14861","exid":"http:\/\/sws.geonames.org\/2758831\/","cname":"Nederland","cexid":"http:\/\/sws.geonames.org\/2750405\/","pname":"Blerick","pexid":"http:\/\/sws.geonames.org\/2758831\/","mname":"Venlo","mexid":"http:\/\/sws.geonames.org\/2745640\/","prname":"Limburg","prexid":"http:\/\/sws.geonames.org\/2751596\/"}
{"obid":"niod:2760198","dcid":"10.17026\/dans-xn2-apb4","name":"Venlo","lat":"51.37","lng":"6.16806","exid":"http:\/\/sws.geonames.org\/2745641\/","cname":"Nederland","cexid":"http:\/\/sws.geonames.org\/2750405\/","pname":"Venlo","pexid":"http:\/\/sws.geonames.org\/2745641\/","mname":"Gemeente Venlo","mexid":"http:\/\/sws.geonames.org\/2745640\/","prname":"Limburg","prexid":"http:\/\/sws.geonames.org\/2751596\/"}
{"obid":"niod:2760198","dcid":"10.17026\/dans-xn2-apb4","name":"Bolsward","lat":"53.0656","lng":"5.53176","exid":"http:\/\/sws.geonames.org\/2758682\/","cname":"Nederland","cexid":"http:\/\/sws.geonames.org\/2750405\/","pname":"Bolsward","pexid":"http:\/\/sws.geonames.org\/2758682\/","mname":"S\u00fbdwest Frysl\u00e2n","mexid":"http:\/\/sws.geonames.org\/8260049\/","prname":"Friesland","prexid":"http:\/\/sws.geonames.org\/2755812\/"}
{"obid":"niod:2760199","dcid":"10.17026\/dans-xbe-jnrs","name":"Venlo","lat":"51.37","lng":"6.16806","exid":"http:\/\/sws.geonames.org\/2745641\/","cname":"Nederland","cexid":"http:\/\/sws.geonames.org\/2750405\/","pname":"Venlo","pexid":"http:\/\/sws.geonames.org\/2745641\/","mname":"Gemeente Venlo","mexid":"http:\/\/sws.geonames.org\/2745640\/","prname":"Limburg","prexid":"http:\/\/sws.geonames.org\/2751596\/"}
{"obid":"niod:2760200","dcid":"https:\/\/easy.dans.knaw.nl\/ui\/datasets\/id\/easy-dataset:41134","name":"Venlo","lat":"51.37","lng":"6.16806","exid":"http:\/\/sws.geonames.org\/2745641\/","cname":"Nederland","cexid":"http:\/\/sws.geonames.org\/2750405\/","pname":"Venlo","pexid":"http:\/\/sws.geonames.org\/2745641\/","mname":"Gemeente Venlo","mexid":"http:\/\/sws.geonames.org\/2745640\/","prname":"Limburg","prexid":"http:\/\/sws.geonames.org\/2751596\/"}
{"obid":"niod:2760523","dcid":"10.17026\/dans-xvb-ebx5","name":"Rotterdam","lat":"51.9225","lng":"4.47917","exid":"http:\/\/sws.geonames.org\/2747891\/","cname":"Nederland","cexid":"http:\/\/sws.geonames.org\/2750405\/","pname":"Rotterdam","pexid":"http:\/\/sws.geonames.org\/2747891\/","mname":"Gemeente Rotterdam","mexid":"http:\/\/sws.geonames.org\/2747890\/","prname":"Zuid-Holland","prexid":"http:\/\/sws.geonames.org\/2743698\/"}
{"obid":"niod:2760527","dcid":"10.17026\/dans-zxk-pzs6","name":"Westerbork","lat":"52.85","lng":"6.60833","exid":"http:\/\/sws.geonames.org\/2744769\/","cname":"Nederland","cexid":"http:\/\/sws.geonames.org\/2750405\/","pname":"Westerbork","pexid":"http:\/\/sws.geonames.org\/2744769\/","mname":"Gemeente Midden-Drenthe","mexid":"http:\/\/sws.geonames.org\/6544297\/","prname":"Drenthe","prexid":"http:\/\/sws.geonames.org\/2756631\/"}
{"obid":"niod:2760529","dcid":"10.17026\/dans-242-sbvh","name":"Amsterdam","lat":"52.374","lng":"4.88969","exid":"http:\/\/sws.geonames.org\/2759794\/","cname":"Nederland","cexid":"http:\/\/sws.geonames.org\/2750405\/","pname":"Amsterdam","pexid":"http:\/\/sws.geonames.org\/2759794\/","mname":"Gemeente Amsterdam","mexid":"http:\/\/sws.geonames.org\/2759793\/","prname":"Noord-Holland","prexid":"http:\/\/sws.geonames.org\/2749879\/"}
{"obid":"niod:2760532","dcid":"10.17026\/dans-2ct-aq3x","name":"Amsterdam","lat":"52.374","lng":"4.88969","exid":"http:\/\/sws.geonames.org\/2759794\/","cname":"Nederland","cexid":"http:\/\/sws.geonames.org\/2750405\/","pname":"Amsterdam","pexid":"http:\/\/sws.geonames.org\/2759794\/","mname":"Gemeente Amsterdam","mexid":"http:\/\/sws.geonames.org\/2759793\/","prname":"Noord-Holland","prexid":"http:\/\/sws.geonames.org\/2749879\/"}
{"obid":"niod:2760534","dcid":"10.17026\/dans-28z-wgkw","name":"Amsterdam","lat":"52.374","lng":"4.88969","exid":"http:\/\/sws.geonames.org\/2759794\/","cname":"Nederland","cexid":"http:\/\/sws.geonames.org\/2750405\/","pname":"Amsterdam","pexid":"http:\/\/sws.geonames.org\/2759794\/","mname":"Gemeente Amsterdam","mexid":"http:\/\/sws.geonames.org\/2759793\/","prname":"Noord-Holland","prexid":"http:\/\/sws.geonames.org\/2749879\/"}
{"obid":"niod:2760536","dcid":"10.17026\/dans-xzr-vqkg","name":"Amsterdam","lat":"52.374","lng":"4.88969","exid":"http:\/\/sws.geonames.org\/2759794\/","cname":"Nederland","cexid":"http:\/\/sws.geonames.org\/2750405\/","pname":"Amsterdam","pexid":"http:\/\/sws.geonames.org\/2759794\/","mname":"Gemeente Amsterdam","mexid":"http:\/\/sws.geonames.org\/2759793\/","prname":"Noord-Holland","prexid":"http:\/\/sws.geonames.org\/2749879\/"}
{"obid":"niod:2760537","dcid":"10.17026\/dans-x96-qfya","name":"Amsterdam","lat":"52.374","lng":"4.88969","exid":"http:\/\/sws.geonames.org\/2759794\/","cname":"Nederland","cexid":"http:\/\/sws.geonames.org\/2750405\/","pname":"Amsterdam","pexid":"http:\/\/sws.geonames.org\/2759794\/","mname":"Gemeente Amsterdam","mexid":"http:\/\/sws.geonames.org\/2759793\/","prname":"Noord-Holland","prexid":"http:\/\/sws.geonames.org\/2749879\/"}
{"obid":"niod:2760538","dcid":"10.17026\/dans-2zw-zjw4","name":"Drenthe","lat":"52.8333","lng":"6.58333","exid":"http:\/\/sws.geonames.org\/2756631\/","cname":"Nederland","cexid":"http:\/\/sws.geonames.org\/2750405\/","mexid":"http:\/\/sws.geonames.org\/\/","prname":"Drenthe","prexid":"http:\/\/sws.geonames.org\/2756631\/"}
{"obid":"niod:2760540","dcid":"10.17026\/dans-x6z-bzjx","name":"Rotterdam","lat":"51.9225","lng":"4.47917","exid":"http:\/\/sws.geonames.org\/2747891\/","cname":"Nederland","cexid":"http:\/\/sws.geonames.org\/2750405\/","pname":"Rotterdam","pexid":"http:\/\/sws.geonames.org\/2747891\/","mname":"Gemeente Rotterdam","mexid":"http:\/\/sws.geonames.org\/2747890\/","prname":"Zuid-Holland","prexid":"http:\/\/sws.geonames.org\/2743698\/"}
{"obid":"niod:2760541","dcid":"10.17026\/dans-zzw-tf7y","name":"Amsterdam","lat":"52.374","lng":"4.88969","exid":"http:\/\/sws.geonames.org\/2759794\/","cname":"Nederland","cexid":"http:\/\/sws.geonames.org\/2750405\/","pname":"Amsterdam","pexid":"http:\/\/sws.geonames.org\/2759794\/","mname":"Gemeente Amsterdam","mexid":"http:\/\/sws.geonames.org\/2759793\/","prname":"Noord-Holland","prexid":"http:\/\/sws.geonames.org\/2749879\/"}
{"obid":"niod:2760544","dcid":"10.17026\/dans-22j-sz8a","name":"Rotterdam","lat":"51.9225","lng":"4.47917","exid":"http:\/\/sws.geonames.org\/2747891\/","cname":"Nederland","cexid":"http:\/\/sws.geonames.org\/2750405\/","pname":"Rotterdam","pexid":"http:\/\/sws.geonames.org\/2747891\/","mname":"Gemeente Rotterdam","mexid":"http:\/\/sws.geonames.org\/2747890\/","prname":"Zuid-Holland","prexid":"http:\/\/sws.geonames.org\/2743698\/"}
{"obid":"niod:2760546","dcid":"10.17026\/dans-z5h-sfe9","name":"Amsterdam","lat":"52.374","lng":"4.88969","exid":"http:\/\/sws.geonames.org\/2759794\/","cname":"Nederland","cexid":"http:\/\/sws.geonames.org\/2750405\/","pname":"Amsterdam","pexid":"http:\/\/sws.geonames.org\/2759794\/","mname":"Gemeente Amsterdam","mexid":"http:\/\/sws.geonames.org\/2759793\/","prname":"Noord-Holland","prexid":"http:\/\/sws.geonames.org\/2749879\/"}
{"obid":"niod:2760548","dcid":"10.17026\/dans-26f-vtmd","name":"Amsterdam","lat":"52.374","lng":"4.88969","exid":"http:\/\/sws.geonames.org\/2759794\/","cname":"Nederland","cexid":"http:\/\/sws.geonames.org\/2750405\/","pname":"Amsterdam","pexid":"http:\/\/sws.geonames.org\/2759794\/","mname":"Gemeente Amsterdam","mexid":"http:\/\/sws.geonames.org\/2759793\/","prname":"Noord-Holland","prexid":"http:\/\/sws.geonames.org\/2749879\/"}
{"obid":"niod:2760550","dcid":"10.17026\/dans-z3r-cwyv","name":"Foxhol, Groningen","lat":"53.1674","lng":"6.72183","exid":"http:\/\/sws.geonames.org\/2755853\/","cname":"Nederland","cexid":"http:\/\/sws.geonames.org\/2750405\/","pname":"Foxhol","pexid":"http:\/\/sws.geonames.org\/2755853\/","mname":"Gemeente Hoogezand-Sappemeer","mexid":"http:\/\/sws.geonames.org\/2753705\/","prname":"Groningen","prexid":"http:\/\/sws.geonames.org\/2755249\/"}
{"obid":"niod:2760566","dcid":"10.17026\/dans-xax-ape2","name":"Meppel","lat":"52.6958","lng":"6.19444","exid":"http:\/\/sws.geonames.org\/2750947\/","cname":"Nederland","cexid":"http:\/\/sws.geonames.org\/2750405\/","pname":"Meppel","pexid":"http:\/\/sws.geonames.org\/2750947\/","mname":"Gemeente Meppel","mexid":"http:\/\/sws.geonames.org\/2750946\/","prname":"Drenthe","prexid":"http:\/\/sws.geonames.org\/2756631\/"}
{"obid":"niod:2760568","dcid":"10.17026\/dans-x5r-p4x2","name":"Winschoten","lat":"53.1442","lng":"7.03472","exid":"http:\/\/sws.geonames.org\/2744344\/","cname":"Nederland","cexid":"http:\/\/sws.geonames.org\/2750405\/","pname":"Winschoten","pexid":"http:\/\/sws.geonames.org\/2744344\/","mname":"Gemeente  Oldambt","mexid":"http:\/\/sws.geonames.org\/7535498\/","prname":"Groningen","prexid":"http:\/\/sws.geonames.org\/2755249\/"}
{"obid":"niod:2760569","dcid":"10.17026\/dans-z8a-dw26","name":"Meppel","lat":"52.6958","lng":"6.19444","exid":"http:\/\/sws.geonames.org\/2750947\/","cname":"Nederland","cexid":"http:\/\/sws.geonames.org\/2750405\/","pname":"Meppel","pexid":"http:\/\/sws.geonames.org\/2750947\/","mname":"Gemeente Meppel","mexid":"http:\/\/sws.geonames.org\/2750946\/","prname":"Drenthe","prexid":"http:\/\/sws.geonames.org\/2756631\/"}
{"obid":"niod:2760570","dcid":"10.17026\/dans-znq-2a94","name":"Hoogezand","lat":"53.1617","lng":"6.76111","exid":"http:\/\/sws.geonames.org\/2753706\/","cname":"Nederland","cexid":"http:\/\/sws.geonames.org\/2750405\/","pname":"Hoogezand","pexid":"http:\/\/sws.geonames.org\/2753706\/","mname":"Gemeente Hoogezand-Sappemeer","mexid":"http:\/\/sws.geonames.org\/2753705\/","prname":"Groningen","prexid":"http:\/\/sws.geonames.org\/2755249\/"}
{"obid":"niod:2760574","dcid":"10.17026\/dans-xf2-5eqr","name":"Zeist","lat":"52.09","lng":"5.23333","exid":"http:\/\/sws.geonames.org\/2743977\/","cname":"Nederland","cexid":"http:\/\/sws.geonames.org\/2750405\/","pname":"Zeist","pexid":"http:\/\/sws.geonames.org\/2743977\/","mname":"Gemeente Zeist","mexid":"http:\/\/sws.geonames.org\/2743976\/","prname":"Utrecht","prexid":"http:\/\/sws.geonames.org\/2745909\/"}
{"obid":"niod:2760582","dcid":"10.17026\/dans-z5n-qd85","name":"Amsterdam","lat":"52.374","lng":"4.88969","exid":"http:\/\/sws.geonames.org\/2759794\/","cname":"Nederland","cexid":"http:\/\/sws.geonames.org\/2750405\/","pname":"Amsterdam","pexid":"http:\/\/sws.geonames.org\/2759794\/","mname":"Gemeente Amsterdam","mexid":"http:\/\/sws.geonames.org\/2759793\/","prname":"Noord-Holland","prexid":"http:\/\/sws.geonames.org\/2749879\/"}
{"obid":"niod:2760583","dcid":"10.17026\/dans-xye-wuhx","name":"Rotterdam","lat":"51.9225","lng":"4.47917","exid":"http:\/\/sws.geonames.org\/2747891\/","cname":"Nederland","cexid":"http:\/\/sws.geonames.org\/2750405\/","pname":"Rotterdam","pexid":"http:\/\/sws.geonames.org\/2747891\/","mname":"Gemeente Rotterdam","mexid":"http:\/\/sws.geonames.org\/2747890\/","prname":"Zuid-Holland","prexid":"http:\/\/sws.geonames.org\/2743698\/"}
{"obid":"niod:2760584","dcid":"10.17026\/dans-z5b-8kke","name":"Epe, Gelderland","lat":"52.3475","lng":"5.98333","exid":"http:\/\/sws.geonames.org\/2756059\/","cname":"Nederland","cexid":"http:\/\/sws.geonames.org\/2750405\/","pname":"Epe","pexid":"http:\/\/sws.geonames.org\/2756059\/","mname":"Gemeente Epe","mexid":"http:\/\/sws.geonames.org\/2756058\/","prname":"Gelderland","prexid":"http:\/\/sws.geonames.org\/2755634\/"}
{"obid":"niod:2760585","dcid":"10.17026\/dans-x2u-sk9j","name":"Rotterdam","lat":"51.9225","lng":"4.47917","exid":"http:\/\/sws.geonames.org\/2747891\/","cname":"Nederland","cexid":"http:\/\/sws.geonames.org\/2750405\/","pname":"Rotterdam","pexid":"http:\/\/sws.geonames.org\/2747891\/","mname":"Gemeente Rotterdam","mexid":"http:\/\/sws.geonames.org\/2747890\/","prname":"Zuid-Holland","prexid":"http:\/\/sws.geonames.org\/2743698\/"}
{"obid":"niod:2760587","dcid":"10.17026\/dans-zsp-teu4","name":"Rotterdam","lat":"51.9225","lng":"4.47917","exid":"http:\/\/sws.geonames.org\/2747891\/","cname":"Nederland","cexid":"http:\/\/sws.geonames.org\/2750405\/","pname":"Rotterdam","pexid":"http:\/\/sws.geonames.org\/2747891\/","mname":"Gemeente Rotterdam","mexid":"http:\/\/sws.geonames.org\/2747890\/","prname":"Zuid-Holland","prexid":"http:\/\/sws.geonames.org\/2743698\/"}
{"obid":"niod:2760589","dcid":"10.17026\/dans-x63-zwpp","name":"Rotterdam","lat":"51.9225","lng":"4.47917","exid":"http:\/\/sws.geonames.org\/2747891\/","cname":"Nederland","cexid":"http:\/\/sws.geonames.org\/2750405\/","pname":"Rotterdam","pexid":"http:\/\/sws.geonames.org\/2747891\/","mname":"Gemeente Rotterdam","mexid":"http:\/\/sws.geonames.org\/2747890\/","prname":"Zuid-Holland","prexid":"http:\/\/sws.geonames.org\/2743698\/"}
{"obid":"niod:2760590","dcid":"10.17026\/dans-2x2-fcse","name":"Rotterdam","lat":"51.9225","lng":"4.47917","exid":"http:\/\/sws.geonames.org\/2747891\/","cname":"Nederland","cexid":"http:\/\/sws.geonames.org\/2750405\/","pname":"Rotterdam","pexid":"http:\/\/sws.geonames.org\/2747891\/","mname":"Gemeente Rotterdam","mexid":"http:\/\/sws.geonames.org\/2747890\/","prname":"Zuid-Holland","prexid":"http:\/\/sws.geonames.org\/2743698\/"}
{"obid":"niod:2760591","dcid":"10.17026\/dans-23e-gmj9","name":"Rotterdam","lat":"51.9225","lng":"4.47917","exid":"http:\/\/sws.geonames.org\/2747891\/","cname":"Nederland","cexid":"http:\/\/sws.geonames.org\/2750405\/","pname":"Rotterdam","pexid":"http:\/\/sws.geonames.org\/2747891\/","mname":"Gemeente Rotterdam","mexid":"http:\/\/sws.geonames.org\/2747890\/","prname":"Zuid-Holland","prexid":"http:\/\/sws.geonames.org\/2743698\/"}
{"obid":"niod:2760592","dcid":"10.17026\/dans-zak-p3ke","name":"Rotterdam","lat":"51.9225","lng":"4.47917","exid":"http:\/\/sws.geonames.org\/2747891\/","cname":"Nederland","cexid":"http:\/\/sws.geonames.org\/2750405\/","pname":"Rotterdam","pexid":"http:\/\/sws.geonames.org\/2747891\/","mname":"Gemeente Rotterdam","mexid":"http:\/\/sws.geonames.org\/2747890\/","prname":"Zuid-Holland","prexid":"http:\/\/sws.geonames.org\/2743698\/"}
{"obid":"niod:2760593","dcid":"10.17026\/dans-xdd-c8dp","name":"Rotterdam","lat":"51.9225","lng":"4.47917","exid":"http:\/\/sws.geonames.org\/2747891\/","cname":"Nederland","cexid":"http:\/\/sws.geonames.org\/2750405\/","pname":"Rotterdam","pexid":"http:\/\/sws.geonames.org\/2747891\/","mname":"Gemeente Rotterdam","mexid":"http:\/\/sws.geonames.org\/2747890\/","prname":"Zuid-Holland","prexid":"http:\/\/sws.geonames.org\/2743698\/"}
{"obid":"niod:2760594","dcid":"10.17026\/dans-xze-wgyt","name":"Rotterdam","lat":"51.9225","lng":"4.47917","exid":"http:\/\/sws.geonames.org\/2747891\/","cname":"Nederland","cexid":"http:\/\/sws.geonames.org\/2750405\/","pname":"Rotterdam","pexid":"http:\/\/sws.geonames.org\/2747891\/","mname":"Gemeente Rotterdam","mexid":"http:\/\/sws.geonames.org\/2747890\/","prname":"Zuid-Holland","prexid":"http:\/\/sws.geonames.org\/2743698\/"}
{"obid":"niod:2760595","dcid":"10.17026\/dans-z7r-xn38","name":"Rotterdam","lat":"51.9225","lng":"4.47917","exid":"http:\/\/sws.geonames.org\/2747891\/","cname":"Nederland","cexid":"http:\/\/sws.geonames.org\/2750405\/","pname":"Rotterdam","pexid":"http:\/\/sws.geonames.org\/2747891\/","mname":"Gemeente Rotterdam","mexid":"http:\/\/sws.geonames.org\/2747890\/","prname":"Zuid-Holland","prexid":"http:\/\/sws.geonames.org\/2743698\/"}
{"obid":"niod:2760597","dcid":"10.17026\/dans-zhn-fxr6","name":"Rotterdam","lat":"51.9225","lng":"4.47917","exid":"http:\/\/sws.geonames.org\/2747891\/","cname":"Nederland","cexid":"http:\/\/sws.geonames.org\/2750405\/","pname":"Rotterdam","pexid":"http:\/\/sws.geonames.org\/2747891\/","mname":"Gemeente Rotterdam","mexid":"http:\/\/sws.geonames.org\/2747890\/","prname":"Zuid-Holland","prexid":"http:\/\/sws.geonames.org\/2743698\/"}
{"obid":"niod:2760598","dcid":"10.17026\/dans-x2n-gxpq","name":"Rotterdam","lat":"51.9225","lng":"4.47917","exid":"http:\/\/sws.geonames.org\/2747891\/","cname":"Nederland","cexid":"http:\/\/sws.geonames.org\/2750405\/","pname":"Rotterdam","pexid":"http:\/\/sws.geonames.org\/2747891\/","mname":"Gemeente Rotterdam","mexid":"http:\/\/sws.geonames.org\/2747890\/","prname":"Zuid-Holland","prexid":"http:\/\/sws.geonames.org\/2743698\/"}
{"obid":"niod:2760599","dcid":"10.17026\/dans-xxy-zkc4","name":"Rotterdam","lat":"51.9225","lng":"4.47917","exid":"http:\/\/sws.geonames.org\/2747891\/","cname":"Nederland","cexid":"http:\/\/sws.geonames.org\/2750405\/","pname":"Rotterdam","pexid":"http:\/\/sws.geonames.org\/2747891\/","mname":"Gemeente Rotterdam","mexid":"http:\/\/sws.geonames.org\/2747890\/","prname":"Zuid-Holland","prexid":"http:\/\/sws.geonames.org\/2743698\/"}
{"obid":"niod:2760600","dcid":"10.17026\/dans-xvb-6tq9","name":"Rotterdam","lat":"51.9225","lng":"4.47917","exid":"http:\/\/sws.geonames.org\/2747891\/","cname":"Nederland","cexid":"http:\/\/sws.geonames.org\/2750405\/","pname":"Rotterdam","pexid":"http:\/\/sws.geonames.org\/2747891\/","mname":"Gemeente Rotterdam","mexid":"http:\/\/sws.geonames.org\/2747890\/","prname":"Zuid-Holland","prexid":"http:\/\/sws.geonames.org\/2743698\/"}
{"obid":"niod:2760601","dcid":"10.17026\/dans-xqh-tv5f","name":"Rotterdam","lat":"51.9225","lng":"4.47917","exid":"http:\/\/sws.geonames.org\/2747891\/","cname":"Nederland","cexid":"http:\/\/sws.geonames.org\/2750405\/","pname":"Rotterdam","pexid":"http:\/\/sws.geonames.org\/2747891\/","mname":"Gemeente Rotterdam","mexid":"http:\/\/sws.geonames.org\/2747890\/","prname":"Zuid-Holland","prexid":"http:\/\/sws.geonames.org\/2743698\/"}
{"obid":"niod:2760602","dcid":"10.17026\/dans-x4w-k5vs","name":"Rotterdam","lat":"51.9225","lng":"4.47917","exid":"http:\/\/sws.geonames.org\/2747891\/","cname":"Nederland","cexid":"http:\/\/sws.geonames.org\/2750405\/","pname":"Rotterdam","pexid":"http:\/\/sws.geonames.org\/2747891\/","mname":"Gemeente Rotterdam","mexid":"http:\/\/sws.geonames.org\/2747890\/","prname":"Zuid-Holland","prexid":"http:\/\/sws.geonames.org\/2743698\/"}
{"obid":"niod:2760694","dcid":"10.17026\/dans-2xz-u229","name":"Nederland","lat":"52.25","lng":"5.75","exid":"http:\/\/sws.geonames.org\/2750405\/","cname":"Nederland","cexid":"http:\/\/sws.geonames.org\/2750405\/"}
{"obid":"niod:2760694","dcid":"10.17026\/dans-2xz-u229","name":"Bergen-Belsen","lat":"52.7587","lng":"9.90657","exid":"http:\/\/sws.geonames.org\/3206558\/","cname":"Duitsland","cexid":"http:\/\/sws.geonames.org\/2921044\/"}
{"obid":"niod:2760695","dcid":"10.17026\/dans-z2v-f6ux","name":"Nederland","lat":"52.25","lng":"5.75","exid":"http:\/\/sws.geonames.org\/2750405\/","cname":"Nederland","cexid":"http:\/\/sws.geonames.org\/2750405\/"}
{"obid":"niod:2760695","dcid":"10.17026\/dans-z2v-f6ux","name":"Westerbork","lat":"52.85","lng":"6.60833","exid":"http:\/\/sws.geonames.org\/2744769\/","cname":"Nederland","cexid":"http:\/\/sws.geonames.org\/2750405\/","pname":"Westerbork","pexid":"http:\/\/sws.geonames.org\/2744769\/","mname":"Gemeente Midden-Drenthe","mexid":"http:\/\/sws.geonames.org\/6544297\/","prname":"Drenthe","prexid":"http:\/\/sws.geonames.org\/2756631\/"}
{"obid":"niod:2760695","dcid":"10.17026\/dans-z2v-f6ux","name":"Duitsland","lat":"51.5","lng":"10.5","exid":"http:\/\/sws.geonames.org\/2921044\/","cname":"Duitsland","cexid":"http:\/\/sws.geonames.org\/2921044\/"}
{"obid":"niod:2760696","dcid":"10.17026\/dans-zhr-eswk","name":"Amsterdam","lat":"52.374","lng":"4.88969","exid":"http:\/\/sws.geonames.org\/2759794\/","cname":"Nederland","cexid":"http:\/\/sws.geonames.org\/2750405\/","pname":"Amsterdam","pexid":"http:\/\/sws.geonames.org\/2759794\/","mname":"Gemeente Amsterdam","mexid":"http:\/\/sws.geonames.org\/2759793\/","prname":"Noord-Holland","prexid":"http:\/\/sws.geonames.org\/2749879\/"}
{"obid":"niod:2760697","dcid":"10.17026\/dans-xeh-f6xm","name":"Amsterdam","lat":"52.374","lng":"4.88969","exid":"http:\/\/sws.geonames.org\/2759794\/","cname":"Nederland","cexid":"http:\/\/sws.geonames.org\/2750405\/","pname":"Amsterdam","pexid":"http:\/\/sws.geonames.org\/2759794\/","mname":"Gemeente Amsterdam","mexid":"http:\/\/sws.geonames.org\/2759793\/","prname":"Noord-Holland","prexid":"http:\/\/sws.geonames.org\/2749879\/"}
{"obid":"niod:2760698","dcid":"10.17026\/dans-zct-en83","name":"Nederland","lat":"52.25","lng":"5.75","exid":"http:\/\/sws.geonames.org\/2750405\/","cname":"Nederland","cexid":"http:\/\/sws.geonames.org\/2750405\/"}
{"obid":"niod:2760698","dcid":"10.17026\/dans-zct-en83","name":"Westerbork","lat":"52.85","lng":"6.60833","exid":"http:\/\/sws.geonames.org\/2744769\/","cname":"Nederland","cexid":"http:\/\/sws.geonames.org\/2750405\/","pname":"Westerbork","pexid":"http:\/\/sws.geonames.org\/2744769\/","mname":"Gemeente Midden-Drenthe","mexid":"http:\/\/sws.geonames.org\/6544297\/","prname":"Drenthe","prexid":"http:\/\/sws.geonames.org\/2756631\/"}
{"obid":"niod:2760698","dcid":"10.17026\/dans-zct-en83","name":"Amsterdam","lat":"52.374","lng":"4.88969","exid":"http:\/\/sws.geonames.org\/2759794\/","cname":"Nederland","cexid":"http:\/\/sws.geonames.org\/2750405\/","pname":"Amsterdam","pexid":"http:\/\/sws.geonames.org\/2759794\/","mname":"Gemeente Amsterdam","mexid":"http:\/\/sws.geonames.org\/2759793\/","prname":"Noord-Holland","prexid":"http:\/\/sws.geonames.org\/2749879\/"}
{"obid":"niod:2760699","dcid":"https:\/\/easy.dans.knaw.nl\/ui\/datasets\/id\/easy-dataset:41906","name":"Nederland","lat":"52.25","lng":"5.75","exid":"http:\/\/sws.geonames.org\/2750405\/","cname":"Nederland","cexid":"http:\/\/sws.geonames.org\/2750405\/"}
{"obid":"niod:2760699","dcid":"https:\/\/easy.dans.knaw.nl\/ui\/datasets\/id\/easy-dataset:41906","name":"Westerbork","lat":"52.85","lng":"6.60833","exid":"http:\/\/sws.geonames.org\/2744769\/","cname":"Nederland","cexid":"http:\/\/sws.geonames.org\/2750405\/","pname":"Westerbork","pexid":"http:\/\/sws.geonames.org\/2744769\/","mname":"Gemeente Midden-Drenthe","mexid":"http:\/\/sws.geonames.org\/6544297\/","prname":"Drenthe","prexid":"http:\/\/sws.geonames.org\/2756631\/"}
{"obid":"niod:2760700","dcid":"10.17026\/dans-zeh-k8ud","name":"Nederland","lat":"52.25","lng":"5.75","exid":"http:\/\/sws.geonames.org\/2750405\/","cname":"Nederland","cexid":"http:\/\/sws.geonames.org\/2750405\/"}
{"obid":"niod:2760700","dcid":"10.17026\/dans-zeh-k8ud","name":"Westerbork","lat":"52.85","lng":"6.60833","exid":"http:\/\/sws.geonames.org\/2744769\/","cname":"Nederland","cexid":"http:\/\/sws.geonames.org\/2750405\/","pname":"Westerbork","pexid":"http:\/\/sws.geonames.org\/2744769\/","mname":"Gemeente Midden-Drenthe","mexid":"http:\/\/sws.geonames.org\/6544297\/","prname":"Drenthe","prexid":"http:\/\/sws.geonames.org\/2756631\/"}
{"obid":"niod:2760701","dcid":"10.17026\/dans-2c8-nmub","name":"Nederland","lat":"52.25","lng":"5.75","exid":"http:\/\/sws.geonames.org\/2750405\/","cname":"Nederland","cexid":"http:\/\/sws.geonames.org\/2750405\/"}
{"obid":"niod:2760701","dcid":"10.17026\/dans-2c8-nmub","name":"Westerbork","lat":"52.85","lng":"6.60833","exid":"http:\/\/sws.geonames.org\/2744769\/","cname":"Nederland","cexid":"http:\/\/sws.geonames.org\/2750405\/","pname":"Westerbork","pexid":"http:\/\/sws.geonames.org\/2744769\/","mname":"Gemeente Midden-Drenthe","mexid":"http:\/\/sws.geonames.org\/6544297\/","prname":"Drenthe","prexid":"http:\/\/sws.geonames.org\/2756631\/"}
{"obid":"niod:2760701","dcid":"10.17026\/dans-2c8-nmub","name":"Barneveld","lat":"52.14","lng":"5.58472","exid":"http:\/\/sws.geonames.org\/2759407\/","cname":"Nederland","cexid":"http:\/\/sws.geonames.org\/2750405\/","pname":"Barneveld","pexid":"http:\/\/sws.geonames.org\/2759407\/","mname":"Gemeente Barneveld","mexid":"http:\/\/sws.geonames.org\/2759406\/","prname":"Gelderland","prexid":"http:\/\/sws.geonames.org\/2755634\/"}
{"obid":"niod:2760702","dcid":"10.17026\/dans-29f-6hsd","name":"Nederland","lat":"52.25","lng":"5.75","exid":"http:\/\/sws.geonames.org\/2750405\/","cname":"Nederland","cexid":"http:\/\/sws.geonames.org\/2750405\/"}
{"obid":"niod:2760702","dcid":"10.17026\/dans-29f-6hsd","name":"Westerbork","lat":"52.85","lng":"6.60833","exid":"http:\/\/sws.geonames.org\/2744769\/","cname":"Nederland","cexid":"http:\/\/sws.geonames.org\/2750405\/","pname":"Westerbork","pexid":"http:\/\/sws.geonames.org\/2744769\/","mname":"Gemeente Midden-Drenthe","mexid":"http:\/\/sws.geonames.org\/6544297\/","prname":"Drenthe","prexid":"http:\/\/sws.geonames.org\/2756631\/"}
{"obid":"niod:2760703","dcid":"10.17026\/dans-zeg-6rqu","name":"Westerbork","lat":"52.85","lng":"6.60833","exid":"http:\/\/sws.geonames.org\/2744769\/","cname":"Nederland","cexid":"http:\/\/sws.geonames.org\/2750405\/","pname":"Westerbork","pexid":"http:\/\/sws.geonames.org\/2744769\/","mname":"Gemeente Midden-Drenthe","mexid":"http:\/\/sws.geonames.org\/6544297\/","prname":"Drenthe","prexid":"http:\/\/sws.geonames.org\/2756631\/"}
{"obid":"niod:2760703","dcid":"10.17026\/dans-zeg-6rqu","name":"Bergen-Belsen","lat":"52.7587","lng":"9.90657","exid":"http:\/\/sws.geonames.org\/3206558\/","cname":"Duitsland","cexid":"http:\/\/sws.geonames.org\/2921044\/"}
{"obid":"niod:2760703","dcid":"10.17026\/dans-zeg-6rqu","name":"Tr\u00f6bitz","lat":"51.6","lng":"13.4333","exid":"http:\/\/sws.geonames.org\/2821071\/","cname":"Duitsland","cexid":"http:\/\/sws.geonames.org\/2921044\/"}
{"obid":"niod:2760703","dcid":"10.17026\/dans-zeg-6rqu","name":"Haifa","lat":"32.8184","lng":"34.9885","exid":"http:\/\/sws.geonames.org\/294801\/","cname":"Isra\u00ebl","cexid":"http:\/\/sws.geonames.org\/294640\/","pname":"Haifa","pexid":"http:\/\/sws.geonames.org\/294801\/"}
{"obid":"niod:2760704","dcid":"10.17026\/dans-x5f-7rf3","name":"Westerbork","lat":"52.85","lng":"6.60833","exid":"http:\/\/sws.geonames.org\/2744769\/","cname":"Nederland","cexid":"http:\/\/sws.geonames.org\/2750405\/","pname":"Westerbork","pexid":"http:\/\/sws.geonames.org\/2744769\/","mname":"Gemeente Midden-Drenthe","mexid":"http:\/\/sws.geonames.org\/6544297\/","prname":"Drenthe","prexid":"http:\/\/sws.geonames.org\/2756631\/"}
{"obid":"niod:2760704","dcid":"10.17026\/dans-x5f-7rf3","name":"Bergen-Belsen","lat":"52.7587","lng":"9.90657","exid":"http:\/\/sws.geonames.org\/3206558\/","cname":"Duitsland","cexid":"http:\/\/sws.geonames.org\/2921044\/"}
{"obid":"niod:2760704","dcid":"10.17026\/dans-x5f-7rf3","name":"Tr\u00f6bitz","lat":"51.6","lng":"13.4333","exid":"http:\/\/sws.geonames.org\/2821071\/","cname":"Duitsland","cexid":"http:\/\/sws.geonames.org\/2921044\/"}
{"obid":"niod:2760705","dcid":"10.17026\/dans-2zh-mbxa","name":"Westerbork","lat":"52.85","lng":"6.60833","exid":"http:\/\/sws.geonames.org\/2744769\/","cname":"Nederland","cexid":"http:\/\/sws.geonames.org\/2750405\/","pname":"Westerbork","pexid":"http:\/\/sws.geonames.org\/2744769\/","mname":"Gemeente Midden-Drenthe","mexid":"http:\/\/sws.geonames.org\/6544297\/","prname":"Drenthe","prexid":"http:\/\/sws.geonames.org\/2756631\/"}
{"obid":"niod:2760705","dcid":"10.17026\/dans-2zh-mbxa","name":"Nijmegen","lat":"51.8425","lng":"5.85278","exid":"http:\/\/sws.geonames.org\/2750053\/","cname":"Nederland","cexid":"http:\/\/sws.geonames.org\/2750405\/","pname":"Nijmegen","pexid":"http:\/\/sws.geonames.org\/2750053\/","mname":"Gemeente Nijmegen","mexid":"http:\/\/sws.geonames.org\/2750052\/","prname":"Gelderland","prexid":"http:\/\/sws.geonames.org\/2755634\/"}
{"obid":"niod:2760705","dcid":"10.17026\/dans-2zh-mbxa","name":"Auschwitz","lat":"50.0344","lng":"19.2104","exid":"http:\/\/sws.geonames.org\/3089658\/","cname":"Polen","cexid":"http:\/\/sws.geonames.org\/798544\/"}
{"obid":"niod:2760705","dcid":"10.17026\/dans-2zh-mbxa","name":"Boxmeer","lat":"51.6467","lng":"5.94722","exid":"http:\/\/sws.geonames.org\/2758462\/","cname":"Nederland","cexid":"http:\/\/sws.geonames.org\/2750405\/","pname":"Boxmeer","pexid":"http:\/\/sws.geonames.org\/2758462\/","mname":"Gemeente Boxmeer","mexid":"http:\/\/sws.geonames.org\/2758461\/","prname":"Noord-Brabant","prexid":"http:\/\/sws.geonames.org\/2749990\/"}
{"obid":"niod:2760706","dcid":"https:\/\/easy.dans.knaw.nl\/ui\/datasets\/id\/easy-dataset:41917","name":"Frankfurt am Main","lat":"50.1155","lng":"8.68417","exid":"http:\/\/sws.geonames.org\/2925533\/","cname":"Duitsland","cexid":"http:\/\/sws.geonames.org\/2921044\/","pname":"Frankfurt am Main","pexid":"http:\/\/sws.geonames.org\/2925533\/"}
{"obid":"niod:2760706","dcid":"https:\/\/easy.dans.knaw.nl\/ui\/datasets\/id\/easy-dataset:41917","name":"Saarbr\u00fccken","lat":"49.2354","lng":"6.98165","exid":"http:\/\/sws.geonames.org\/2842647\/","cname":"Duitsland","cexid":"http:\/\/sws.geonames.org\/2921044\/","pname":"Saarbr\u00fccken","pexid":"http:\/\/sws.geonames.org\/2842647\/"}
{"obid":"niod:2760706","dcid":"https:\/\/easy.dans.knaw.nl\/ui\/datasets\/id\/easy-dataset:41917","name":"Spanje","lat":"40","lng":"-4","exid":"http:\/\/sws.geonames.org\/2510769\/","cname":"Spanje","cexid":"http:\/\/sws.geonames.org\/2510769\/"}
{"obid":"niod:2760706","dcid":"https:\/\/easy.dans.knaw.nl\/ui\/datasets\/id\/easy-dataset:41917","name":"Westerbork","lat":"52.85","lng":"6.60833","exid":"http:\/\/sws.geonames.org\/2744769\/","cname":"Nederland","cexid":"http:\/\/sws.geonames.org\/2750405\/","pname":"Westerbork","pexid":"http:\/\/sws.geonames.org\/2744769\/","mname":"Gemeente Midden-Drenthe","mexid":"http:\/\/sws.geonames.org\/6544297\/","prname":"Drenthe","prexid":"http:\/\/sws.geonames.org\/2756631\/"}
{"obid":"niod:2760706","dcid":"https:\/\/easy.dans.knaw.nl\/ui\/datasets\/id\/easy-dataset:41917","name":"Scheveningen","lat":"52.1046","lng":"4.27557","exid":"http:\/\/sws.geonames.org\/2747599\/","cname":"Nederland","cexid":"http:\/\/sws.geonames.org\/2750405\/","pname":"Scheveningen","pexid":"http:\/\/sws.geonames.org\/2747599\/","mname":"'s-Gravenhage","mexid":"http:\/\/sws.geonames.org\/2747372\/","prname":"Zuid-Holland","prexid":"http:\/\/sws.geonames.org\/2743698\/"}
{"obid":"niod:2760706","dcid":"https:\/\/easy.dans.knaw.nl\/ui\/datasets\/id\/easy-dataset:41917","name":"Den Haag","lat":"52.0767","lng":"4.29861","exid":"http:\/\/sws.geonames.org\/2747373\/","cname":"Nederland","cexid":"http:\/\/sws.geonames.org\/2750405\/","pname":"The Hague","pexid":"http:\/\/sws.geonames.org\/2747373\/","mname":"Gemeente Den Haag","mexid":"http:\/\/sws.geonames.org\/2747372\/","prname":"Zuid-Holland","prexid":"http:\/\/sws.geonames.org\/2743698\/"}
{"obid":"niod:2760706","dcid":"https:\/\/easy.dans.knaw.nl\/ui\/datasets\/id\/easy-dataset:41917","name":"Rotterdam","lat":"51.9225","lng":"4.47917","exid":"http:\/\/sws.geonames.org\/2747891\/","cname":"Nederland","cexid":"http:\/\/sws.geonames.org\/2750405\/","pname":"Rotterdam","pexid":"http:\/\/sws.geonames.org\/2747891\/","mname":"Gemeente Rotterdam","mexid":"http:\/\/sws.geonames.org\/2747890\/","prname":"Zuid-Holland","prexid":"http:\/\/sws.geonames.org\/2743698\/"}
{"obid":"niod:2760707","dcid":"https:\/\/easy.dans.knaw.nl\/ui\/datasets\/id\/easy-dataset:41918","name":"Hamburg","lat":"53.5753","lng":"10.0153","exid":"http:\/\/sws.geonames.org\/2911298\/","cname":"Duitsland","cexid":"http:\/\/sws.geonames.org\/2921044\/","pname":"Hamburg","pexid":"http:\/\/sws.geonames.org\/2911298\/"}
{"obid":"niod:2760707","dcid":"https:\/\/easy.dans.knaw.nl\/ui\/datasets\/id\/easy-dataset:41918","name":"Amsterdam","lat":"52.374","lng":"4.88969","exid":"http:\/\/sws.geonames.org\/2759794\/","cname":"Nederland","cexid":"http:\/\/sws.geonames.org\/2750405\/","pname":"Amsterdam","pexid":"http:\/\/sws.geonames.org\/2759794\/","mname":"Gemeente Amsterdam","mexid":"http:\/\/sws.geonames.org\/2759793\/","prname":"Noord-Holland","prexid":"http:\/\/sws.geonames.org\/2749879\/"}
{"obid":"niod:2760707","dcid":"https:\/\/easy.dans.knaw.nl\/ui\/datasets\/id\/easy-dataset:41918","name":"Kamp Westerbork","lat":"52.9167","lng":"6.60808","exid":"http:\/\/sws.geonames.org\/11184993\/","cname":"Nederland","cexid":"http:\/\/sws.geonames.org\/2750405\/","mname":"Midden-Drenthe","mexid":"http:\/\/sws.geonames.org\/6544297\/","prname":"Drenthe","prexid":"http:\/\/sws.geonames.org\/2756631\/"}
{"obid":"niod:2760708","dcid":"10.17026\/dans-x62-tngh","name":"Kamp Westerbork","lat":"52.9167","lng":"6.60808","exid":"http:\/\/sws.geonames.org\/11184993\/","cname":"Nederland","cexid":"http:\/\/sws.geonames.org\/2750405\/","mname":"Midden-Drenthe","mexid":"http:\/\/sws.geonames.org\/6544297\/","prname":"Drenthe","prexid":"http:\/\/sws.geonames.org\/2756631\/"}
{"obid":"niod:2760708","dcid":"10.17026\/dans-x62-tngh","name":"Duitsland","lat":"51.5","lng":"10.5","exid":"http:\/\/sws.geonames.org\/2921044\/","cname":"Duitsland","cexid":"http:\/\/sws.geonames.org\/2921044\/"}
{"obid":"niod:2760708","dcid":"10.17026\/dans-x62-tngh","name":"Auschwitz","lat":"50.0344","lng":"19.2104","exid":"http:\/\/sws.geonames.org\/3089658\/","cname":"Polen","cexid":"http:\/\/sws.geonames.org\/798544\/"}
{"obid":"niod:2760708","dcid":"10.17026\/dans-x62-tngh","name":"Den Haag","lat":"52.0767","lng":"4.29861","exid":"http:\/\/sws.geonames.org\/2747373\/","cname":"Nederland","cexid":"http:\/\/sws.geonames.org\/2750405\/","pname":"The Hague","pexid":"http:\/\/sws.geonames.org\/2747373\/","mname":"Gemeente Den Haag","mexid":"http:\/\/sws.geonames.org\/2747372\/","prname":"Zuid-Holland","prexid":"http:\/\/sws.geonames.org\/2743698\/"}
{"obid":"niod:2760709","dcid":"10.17026\/dans-287-ua7e","name":"Groningen","lat":"53.2192","lng":"6.56667","exid":"http:\/\/sws.geonames.org\/2755251\/","cname":"Nederland","cexid":"http:\/\/sws.geonames.org\/2750405\/","pname":"Groningen","pexid":"http:\/\/sws.geonames.org\/2755251\/","mname":"Gemeente Groningen","mexid":"http:\/\/sws.geonames.org\/2755250\/","prname":"Groningen","prexid":"http:\/\/sws.geonames.org\/2755249\/"}
{"obid":"niod:2760709","dcid":"10.17026\/dans-287-ua7e","name":"Havelte","lat":"52.7694","lng":"6.24015","exid":"http:\/\/sws.geonames.org\/2754752\/","cname":"Nederland","cexid":"http:\/\/sws.geonames.org\/2750405\/","pname":"Havelte","pexid":"http:\/\/sws.geonames.org\/2754752\/","mname":"Gemeente Westerveld","mexid":"http:\/\/sws.geonames.org\/6544239\/","prname":"Drenthe","prexid":"http:\/\/sws.geonames.org\/2756631\/"}
{"obid":"niod:2760709","dcid":"10.17026\/dans-287-ua7e","name":"Kamp Westerbork","lat":"52.9167","lng":"6.60808","exid":"http:\/\/sws.geonames.org\/11184993\/","cname":"Nederland","cexid":"http:\/\/sws.geonames.org\/2750405\/","mname":"Midden-Drenthe","mexid":"http:\/\/sws.geonames.org\/6544297\/","prname":"Drenthe","prexid":"http:\/\/sws.geonames.org\/2756631\/"}
{"obid":"niod:2760709","dcid":"10.17026\/dans-287-ua7e","name":"Amsterdam","lat":"52.374","lng":"4.88969","exid":"http:\/\/sws.geonames.org\/2759794\/","cname":"Nederland","cexid":"http:\/\/sws.geonames.org\/2750405\/","pname":"Amsterdam","pexid":"http:\/\/sws.geonames.org\/2759794\/","mname":"Gemeente Amsterdam","mexid":"http:\/\/sws.geonames.org\/2759793\/","prname":"Noord-Holland","prexid":"http:\/\/sws.geonames.org\/2749879\/"}
{"obid":"niod:2760710","dcid":"10.17026\/dans-x38-vhmt","name":"Kamp Westerbork","lat":"52.9167","lng":"6.60808","exid":"http:\/\/sws.geonames.org\/11184993\/","cname":"Nederland","cexid":"http:\/\/sws.geonames.org\/2750405\/","mname":"Midden-Drenthe","mexid":"http:\/\/sws.geonames.org\/6544297\/","prname":"Drenthe","prexid":"http:\/\/sws.geonames.org\/2756631\/"}
{"obid":"niod:2760711","dcid":"10.17026\/dans-xjk-kqxa","name":"Varsseveld","lat":"51.9433","lng":"6.45833","exid":"http:\/\/sws.geonames.org\/2745800\/","cname":"Nederland","cexid":"http:\/\/sws.geonames.org\/2750405\/","pname":"Varsseveld","pexid":"http:\/\/sws.geonames.org\/2745800\/","mname":"Oude IJsselstreek","mexid":"http:\/\/sws.geonames.org\/6544222\/","prname":"Gelderland","prexid":"http:\/\/sws.geonames.org\/2755634\/"}
{"obid":"niod:2760711","dcid":"10.17026\/dans-xjk-kqxa","name":"Groningen","lat":"53.2192","lng":"6.56667","exid":"http:\/\/sws.geonames.org\/2755251\/","cname":"Nederland","cexid":"http:\/\/sws.geonames.org\/2750405\/","pname":"Groningen","pexid":"http:\/\/sws.geonames.org\/2755251\/","mname":"Gemeente Groningen","mexid":"http:\/\/sws.geonames.org\/2755250\/","prname":"Groningen","prexid":"http:\/\/sws.geonames.org\/2755249\/"}
{"obid":"niod:2760721","dcid":"10.17026\/dans-2bf-2va6","name":"Vught","lat":"51.6533","lng":"5.2875","exid":"http:\/\/sws.geonames.org\/2745154\/","cname":"Nederland","cexid":"http:\/\/sws.geonames.org\/2750405\/","pname":"Vught","pexid":"http:\/\/sws.geonames.org\/2745154\/","mname":"Gemeente Vught","mexid":"http:\/\/sws.geonames.org\/2745153\/","prname":"Noord-Brabant","prexid":"http:\/\/sws.geonames.org\/2749990\/"}
{"obid":"niod:2760735","dcid":"10.17026\/dans-xpa-uek9","name":"Nederland","lat":"52.25","lng":"5.75","exid":"http:\/\/sws.geonames.org\/2750405\/","cname":"Nederland","cexid":"http:\/\/sws.geonames.org\/2750405\/"}
{"obid":"niod:2760735","dcid":"10.17026\/dans-xpa-uek9","name":"Warschau","lat":"52.2298","lng":"21.0118","exid":"http:\/\/sws.geonames.org\/756135\/","cname":"Polen","cexid":"http:\/\/sws.geonames.org\/798544\/"}
{"obid":"niod:2760735","dcid":"10.17026\/dans-xpa-uek9","name":"Isra\u00ebl","lat":"31.5","lng":"34.75","exid":"http:\/\/sws.geonames.org\/294640\/","cname":"Isra\u00ebl","cexid":"http:\/\/sws.geonames.org\/294640\/"}
{"obid":"niod:2760736","dcid":"10.17026\/dans-xgb-2uae","name":"Kamp Westerbork","lat":"52.9167","lng":"6.60808","exid":"http:\/\/sws.geonames.org\/11184993\/","cname":"Nederland","cexid":"http:\/\/sws.geonames.org\/2750405\/","mname":"Midden-Drenthe","mexid":"http:\/\/sws.geonames.org\/6544297\/","prname":"Drenthe","prexid":"http:\/\/sws.geonames.org\/2756631\/"}
{"obid":"niod:2760736","dcid":"10.17026\/dans-xgb-2uae","name":"Duitsland","lat":"51.5","lng":"10.5","exid":"http:\/\/sws.geonames.org\/2921044\/","cname":"Duitsland","cexid":"http:\/\/sws.geonames.org\/2921044\/"}
{"obid":"niod:2760736","dcid":"10.17026\/dans-xgb-2uae","name":"Rotterdam","lat":"51.9225","lng":"4.47917","exid":"http:\/\/sws.geonames.org\/2747891\/","cname":"Nederland","cexid":"http:\/\/sws.geonames.org\/2750405\/","pname":"Rotterdam","pexid":"http:\/\/sws.geonames.org\/2747891\/","mname":"Gemeente Rotterdam","mexid":"http:\/\/sws.geonames.org\/2747890\/","prname":"Zuid-Holland","prexid":"http:\/\/sws.geonames.org\/2743698\/"}
{"obid":"niod:2760737","dcid":"10.17026\/dans-22n-7pzw","name":"Nederland","lat":"52.25","lng":"5.75","exid":"http:\/\/sws.geonames.org\/2750405\/","cname":"Nederland","cexid":"http:\/\/sws.geonames.org\/2750405\/"}
{"obid":"niod:2760737","dcid":"10.17026\/dans-22n-7pzw","name":"Utrecht","lat":"52.0908","lng":"5.12222","exid":"http:\/\/sws.geonames.org\/2745912\/","cname":"Nederland","cexid":"http:\/\/sws.geonames.org\/2750405\/","pname":"Utrecht","pexid":"http:\/\/sws.geonames.org\/2745912\/","mname":"Gemeente Utrecht","mexid":"http:\/\/sws.geonames.org\/2745911\/","prname":"Utrecht","prexid":"http:\/\/sws.geonames.org\/2745909\/"}
{"obid":"niod:2760751","dcid":"10.17026\/dans-zrm-dts5","name":"Aarle-Rixtel, Noord-Brabant","lat":"51.5098","lng":"5.63839","exid":"http:\/\/sws.geonames.org\/6698718\/","cname":"Nederland","cexid":"http:\/\/sws.geonames.org\/2750405\/","pname":"Aarle-Rixtel","pexid":"http:\/\/sws.geonames.org\/6698718\/","mname":"Gemeente Laarbeek","mexid":"http:\/\/sws.geonames.org\/6544266\/","prname":"Noord-Brabant","prexid":"http:\/\/sws.geonames.org\/2749990\/"}
{"obid":"niod:2760751","dcid":"10.17026\/dans-zrm-dts5","name":"Amsterdam","lat":"52.374","lng":"4.88969","exid":"http:\/\/sws.geonames.org\/2759794\/","cname":"Nederland","cexid":"http:\/\/sws.geonames.org\/2750405\/","pname":"Amsterdam","pexid":"http:\/\/sws.geonames.org\/2759794\/","mname":"Gemeente Amsterdam","mexid":"http:\/\/sws.geonames.org\/2759793\/","prname":"Noord-Holland","prexid":"http:\/\/sws.geonames.org\/2749879\/"}
{"obid":"niod:2760751","dcid":"10.17026\/dans-zrm-dts5","name":"Dussen, Noord-Brabant","lat":"51.7308","lng":"4.9625","exid":"http:\/\/sws.geonames.org\/2756483\/","cname":"Nederland","cexid":"http:\/\/sws.geonames.org\/2750405\/","pname":"Dussen","pexid":"http:\/\/sws.geonames.org\/2756483\/","mname":"Gemeente Werkendam","mexid":"http:\/\/sws.geonames.org\/2744826\/","prname":"Noord-Brabant","prexid":"http:\/\/sws.geonames.org\/2749990\/"}
{"obid":"niod:2760751","dcid":"10.17026\/dans-zrm-dts5","name":"Groningen","lat":"53.2192","lng":"6.56667","exid":"http:\/\/sws.geonames.org\/2755251\/","cname":"Nederland","cexid":"http:\/\/sws.geonames.org\/2750405\/","pname":"Groningen","pexid":"http:\/\/sws.geonames.org\/2755251\/","mname":"Gemeente Groningen","mexid":"http:\/\/sws.geonames.org\/2755250\/","prname":"Groningen","prexid":"http:\/\/sws.geonames.org\/2755249\/"}
{"obid":"niod:2760751","dcid":"10.17026\/dans-zrm-dts5","name":"Made, Noord-Brabant","lat":"51.6767","lng":"4.79306","exid":"http:\/\/sws.geonames.org\/2751272\/","cname":"Nederland","cexid":"http:\/\/sws.geonames.org\/2750405\/","pname":"Made","pexid":"http:\/\/sws.geonames.org\/2751272\/","mname":"Gemeente Made en Drimmelen","mexid":"http:\/\/sws.geonames.org\/2751271\/","prname":"Noord-Brabant","prexid":"http:\/\/sws.geonames.org\/2749990\/"}
{"obid":"niod:2760751","dcid":"10.17026\/dans-zrm-dts5","name":"Roermond, Limburg","lat":"51.1942","lng":"5.9875","exid":"http:\/\/sws.geonames.org\/2748000\/","cname":"Nederland","cexid":"http:\/\/sws.geonames.org\/2750405\/","pname":"Roermond","pexid":"http:\/\/sws.geonames.org\/2748000\/","mname":"Gemeente Roermond","mexid":"http:\/\/sws.geonames.org\/2747999\/","prname":"Limburg","prexid":"http:\/\/sws.geonames.org\/2751596\/"}
{"obid":"niod:2760751","dcid":"10.17026\/dans-zrm-dts5","name":"Tilburg, Noord-Brabant","lat":"51.5555","lng":"5.0913","exid":"http:\/\/sws.geonames.org\/2746301\/","cname":"Nederland","cexid":"http:\/\/sws.geonames.org\/2750405\/","pname":"Tilburg","pexid":"http:\/\/sws.geonames.org\/2746301\/","mname":"Gemeente Tilburg","mexid":"http:\/\/sws.geonames.org\/2746300\/","prname":"Noord-Brabant","prexid":"http:\/\/sws.geonames.org\/2749990\/"}
{"obid":"niod:2760751","dcid":"10.17026\/dans-zrm-dts5","name":"Venlo, Limburg","lat":"51.37","lng":"6.16806","exid":"http:\/\/sws.geonames.org\/2745641\/","cname":"Nederland","cexid":"http:\/\/sws.geonames.org\/2750405\/","pname":"Venlo","pexid":"http:\/\/sws.geonames.org\/2745641\/","mname":"Gemeente Venlo","mexid":"http:\/\/sws.geonames.org\/2745640\/","prname":"Limburg","prexid":"http:\/\/sws.geonames.org\/2751596\/"}
{"obid":"niod:2760758","dcid":"10.17026\/dans-z83-wb9r","name":"Assen, Drenthe, Westerbork","lat":"52.9967","lng":"6.5625","exid":"http:\/\/sws.geonames.org\/2759633\/","cname":"Nederland","cexid":"http:\/\/sws.geonames.org\/2750405\/","pname":"Assen","pexid":"http:\/\/sws.geonames.org\/2759633\/","mname":"Gemeente Assen","mexid":"http:\/\/sws.geonames.org\/2759632\/","prname":"Drenthe","prexid":"http:\/\/sws.geonames.org\/2756631\/"}
{"obid":"niod:2760760","dcid":"10.17026\/dans-xmy-3p9e","name":"Indonesi\u00eb","lat":"-5","lng":"120","exid":"http:\/\/sws.geonames.org\/1643084\/","cname":"Indonesi\u00eb","cexid":"http:\/\/sws.geonames.org\/1643084\/"}
{"obid":"niod:2760760","dcid":"10.17026\/dans-xmy-3p9e","name":"Nederland","lat":"52.25","lng":"5.75","exid":"http:\/\/sws.geonames.org\/2750405\/","cname":"Nederland","cexid":"http:\/\/sws.geonames.org\/2750405\/"}
{"obid":"niod:2760761","dcid":"10.17026\/dans-xfa-tecs","name":"Indonesi\u00eb","lat":"-5","lng":"120","exid":"http:\/\/sws.geonames.org\/1643084\/","cname":"Indonesi\u00eb","cexid":"http:\/\/sws.geonames.org\/1643084\/"}
{"obid":"niod:2760761","dcid":"10.17026\/dans-xfa-tecs","name":"Nederland","lat":"52.25","lng":"5.75","exid":"http:\/\/sws.geonames.org\/2750405\/","cname":"Nederland","cexid":"http:\/\/sws.geonames.org\/2750405\/"}
{"obid":"niod:2760762","dcid":"10.17026\/dans-zwb-gxx3","name":"Indonesi\u00eb","lat":"-5","lng":"120","exid":"http:\/\/sws.geonames.org\/1643084\/","cname":"Indonesi\u00eb","cexid":"http:\/\/sws.geonames.org\/1643084\/"}
{"obid":"niod:2760762","dcid":"10.17026\/dans-zwb-gxx3","name":"Nederland","lat":"52.25","lng":"5.75","exid":"http:\/\/sws.geonames.org\/2750405\/","cname":"Nederland","cexid":"http:\/\/sws.geonames.org\/2750405\/"}
{"obid":"niod:2760762","dcid":"10.17026\/dans-zwb-gxx3","name":"Australi\u00eb","lat":"-25","lng":"135","exid":"http:\/\/sws.geonames.org\/2077456\/","cname":"Australi\u00eb","cexid":"http:\/\/sws.geonames.org\/2077456\/"}
{"obid":"niod:2760785","dcid":"10.17026\/dans-zc6-ssy7","name":"Indonesi\u00eb","lat":"-5","lng":"120","exid":"http:\/\/sws.geonames.org\/1643084\/","cname":"Indonesi\u00eb","cexid":"http:\/\/sws.geonames.org\/1643084\/"}
{"obid":"niod:2760785","dcid":"10.17026\/dans-zc6-ssy7","name":"Nieuw-Guinea","lat":"-4.75","lng":"138","exid":"http:\/\/sws.geonames.org\/1643012\/","cname":"Indonesi\u00eb","cexid":"http:\/\/sws.geonames.org\/1643084\/"}
{"obid":"niod:2760785","dcid":"10.17026\/dans-zc6-ssy7","name":"Nederland","lat":"52.25","lng":"5.75","exid":"http:\/\/sws.geonames.org\/2750405\/","cname":"Nederland","cexid":"http:\/\/sws.geonames.org\/2750405\/"}
{"obid":"niod:2760786","dcid":"10.17026\/dans-28t-zcd8","name":"Indonesi\u00eb","lat":"-5","lng":"120","exid":"http:\/\/sws.geonames.org\/1643084\/","cname":"Indonesi\u00eb","cexid":"http:\/\/sws.geonames.org\/1643084\/"}
{"obid":"niod:2760786","dcid":"10.17026\/dans-28t-zcd8","name":"Nederland","lat":"52.25","lng":"5.75","exid":"http:\/\/sws.geonames.org\/2750405\/","cname":"Nederland","cexid":"http:\/\/sws.geonames.org\/2750405\/"}
{"obid":"niod:2760787","dcid":"10.17026\/dans-zmf-6ayv","name":"Indonesi\u00eb","lat":"-5","lng":"120","exid":"http:\/\/sws.geonames.org\/1643084\/","cname":"Indonesi\u00eb","cexid":"http:\/\/sws.geonames.org\/1643084\/"}
{"obid":"niod:2760787","dcid":"10.17026\/dans-zmf-6ayv","name":"Nederland","lat":"52.25","lng":"5.75","exid":"http:\/\/sws.geonames.org\/2750405\/","cname":"Nederland","cexid":"http:\/\/sws.geonames.org\/2750405\/"}
{"obid":"niod:2760788","dcid":"10.17026\/dans-zeg-xw5p","name":"Indonesi\u00eb","lat":"-5","lng":"120","exid":"http:\/\/sws.geonames.org\/1643084\/","cname":"Indonesi\u00eb","cexid":"http:\/\/sws.geonames.org\/1643084\/"}
{"obid":"niod:2760788","dcid":"10.17026\/dans-zeg-xw5p","name":"Nederland","lat":"52.25","lng":"5.75","exid":"http:\/\/sws.geonames.org\/2750405\/","cname":"Nederland","cexid":"http:\/\/sws.geonames.org\/2750405\/"}
{"obid":"niod:3110917","dcid":"10.17026\/dans-zgu-vvst","name":"Groningen","lat":"53.2192","lng":"6.56667","exid":"http:\/\/sws.geonames.org\/2755251\/","cname":"Nederland","cexid":"http:\/\/sws.geonames.org\/2750405\/","pname":"Groningen","pexid":"http:\/\/sws.geonames.org\/2755251\/","mname":"Gemeente Groningen","mexid":"http:\/\/sws.geonames.org\/2755250\/","prname":"Groningen","prexid":"http:\/\/sws.geonames.org\/2755249\/"}
{"obid":"niod:3110917","dcid":"10.17026\/dans-zgu-vvst","name":"Stroobos","lat":"53.2378","lng":"6.21363","exid":"http:\/\/sws.geonames.org\/2746589\/","cname":"Nederland","cexid":"http:\/\/sws.geonames.org\/2750405\/","pname":"Stroobos","pexid":"http:\/\/sws.geonames.org\/2746589\/","mname":"Gemeente Achtkarspelen","mexid":"http:\/\/sws.geonames.org\/2759982\/","prname":"Groningen","prexid":"http:\/\/sws.geonames.org\/2755249\/"}
{"obid":"niod:3110917","dcid":"10.17026\/dans-zgu-vvst","name":"Kollum","lat":"53.277","lng":"6.15293","exid":"http:\/\/sws.geonames.org\/2752524\/","cname":"Nederland","cexid":"http:\/\/sws.geonames.org\/2750405\/","pname":"Kollum","pexid":"http:\/\/sws.geonames.org\/2752524\/","mname":"Gemeente Kollumerland en Nieuwkruisland","mexid":"http:\/\/sws.geonames.org\/2752523\/","prname":"Friesland","prexid":"http:\/\/sws.geonames.org\/2755812\/"}
{"obid":"niod:3110918","dcid":"10.17026\/dans-xrf-w4vs","name":"Groningen","lat":"53.2192","lng":"6.56667","exid":"http:\/\/sws.geonames.org\/2755251\/","cname":"Nederland","cexid":"http:\/\/sws.geonames.org\/2750405\/","pname":"Groningen","pexid":"http:\/\/sws.geonames.org\/2755251\/","mname":"Gemeente Groningen","mexid":"http:\/\/sws.geonames.org\/2755250\/","prname":"Groningen","prexid":"http:\/\/sws.geonames.org\/2755249\/"}
{"obid":"niod:3110918","dcid":"10.17026\/dans-xrf-w4vs","name":"Friesland","lat":"51.9425","lng":"6.17639","exid":"http:\/\/sws.geonames.org\/6544699\/","cname":"Nederland","cexid":"http:\/\/sws.geonames.org\/2750405\/","pname":"Friesland","pexid":"http:\/\/sws.geonames.org\/6544699\/","mname":"Montferland","mexid":"http:\/\/sws.geonames.org\/6544256\/","prname":"Gelderland","prexid":"http:\/\/sws.geonames.org\/2755634\/"}
{"obid":"niod:3110919","dcid":"10.17026\/dans-z75-w3s2","name":"Groningen","lat":"53.2192","lng":"6.56667","exid":"http:\/\/sws.geonames.org\/2755251\/","cname":"Nederland","cexid":"http:\/\/sws.geonames.org\/2750405\/","pname":"Groningen","pexid":"http:\/\/sws.geonames.org\/2755251\/","mname":"Gemeente Groningen","mexid":"http:\/\/sws.geonames.org\/2755250\/","prname":"Groningen","prexid":"http:\/\/sws.geonames.org\/2755249\/"}
{"obid":"niod:3110919","dcid":"10.17026\/dans-z75-w3s2","name":"Amersfoort","lat":"52.155","lng":"5.3875","exid":"http:\/\/sws.geonames.org\/2759821\/","cname":"Nederland","cexid":"http:\/\/sws.geonames.org\/2750405\/","pname":"Amersfoort","pexid":"http:\/\/sws.geonames.org\/2759821\/","mname":"Gemeente Amersfoort","mexid":"http:\/\/sws.geonames.org\/2759820\/","prname":"Utrecht","prexid":"http:\/\/sws.geonames.org\/2745909\/"}
{"obid":"niod:3110919","dcid":"10.17026\/dans-z75-w3s2","name":"Duitsland","lat":"51.5","lng":"10.5","exid":"http:\/\/sws.geonames.org\/2921044\/","cname":"Duitsland","cexid":"http:\/\/sws.geonames.org\/2921044\/"}
{"obid":"niod:3110920","dcid":"10.17026\/dans-xb5-hr7u","name":"Groningen","lat":"53.2192","lng":"6.56667","exid":"http:\/\/sws.geonames.org\/2755251\/","cname":"Nederland","cexid":"http:\/\/sws.geonames.org\/2750405\/","pname":"Groningen","pexid":"http:\/\/sws.geonames.org\/2755251\/","mname":"Gemeente Groningen","mexid":"http:\/\/sws.geonames.org\/2755250\/","prname":"Groningen","prexid":"http:\/\/sws.geonames.org\/2755249\/"}
{"obid":"niod:3110920","dcid":"10.17026\/dans-xb5-hr7u","name":"Nijmegen","lat":"51.8425","lng":"5.85278","exid":"http:\/\/sws.geonames.org\/2750053\/","cname":"Nederland","cexid":"http:\/\/sws.geonames.org\/2750405\/","pname":"Nijmegen","pexid":"http:\/\/sws.geonames.org\/2750053\/","mname":"Gemeente Nijmegen","mexid":"http:\/\/sws.geonames.org\/2750052\/","prname":"Gelderland","prexid":"http:\/\/sws.geonames.org\/2755634\/"}
{"obid":"niod:3110920","dcid":"10.17026\/dans-xb5-hr7u","name":"Amersfoort","lat":"52.155","lng":"5.3875","exid":"http:\/\/sws.geonames.org\/2759821\/","cname":"Nederland","cexid":"http:\/\/sws.geonames.org\/2750405\/","pname":"Amersfoort","pexid":"http:\/\/sws.geonames.org\/2759821\/","mname":"Gemeente Amersfoort","mexid":"http:\/\/sws.geonames.org\/2759820\/","prname":"Utrecht","prexid":"http:\/\/sws.geonames.org\/2745909\/"}
{"obid":"niod:3110921","dcid":"10.17026\/dans-zdu-h36g","name":"Grijpskerk","lat":"53.2625","lng":"6.30833","exid":"http:\/\/sws.geonames.org\/2755317\/","cname":"Nederland","cexid":"http:\/\/sws.geonames.org\/2750405\/","pname":"Grijpskerk","pexid":"http:\/\/sws.geonames.org\/2755317\/","mname":"Gemeente Zuidhorn","mexid":"http:\/\/sws.geonames.org\/2743693\/","prname":"Groningen","prexid":"http:\/\/sws.geonames.org\/2755249\/"}
{"obid":"niod:3110921","dcid":"10.17026\/dans-zdu-h36g","name":"Buitenpost","lat":"53.2517","lng":"6.14483","exid":"http:\/\/sws.geonames.org\/2758131\/","cname":"Nederland","cexid":"http:\/\/sws.geonames.org\/2750405\/","pname":"Buitenpost","pexid":"http:\/\/sws.geonames.org\/2758131\/","mname":"Gemeente Achtkarspelen","mexid":"http:\/\/sws.geonames.org\/2759982\/","prname":"Friesland","prexid":"http:\/\/sws.geonames.org\/2755812\/"}
{"obid":"niod:3110921","dcid":"10.17026\/dans-zdu-h36g","name":"Groningen","lat":"53.2192","lng":"6.56667","exid":"http:\/\/sws.geonames.org\/2755251\/","cname":"Nederland","cexid":"http:\/\/sws.geonames.org\/2750405\/","pname":"Groningen","pexid":"http:\/\/sws.geonames.org\/2755251\/","mname":"Gemeente Groningen","mexid":"http:\/\/sws.geonames.org\/2755250\/","prname":"Groningen","prexid":"http:\/\/sws.geonames.org\/2755249\/"}
{"obid":"niod:3110922","dcid":"10.17026\/dans-27c-sjsh","name":"Zuidwending","lat":"53.0958","lng":"6.93472","exid":"http:\/\/sws.geonames.org\/2743643\/","cname":"Nederland","cexid":"http:\/\/sws.geonames.org\/2750405\/","pname":"Zuidwending","pexid":"http:\/\/sws.geonames.org\/2743643\/","mname":"Veendam","mexid":"http:\/\/sws.geonames.org\/2745782\/","prname":"Groningen","prexid":"http:\/\/sws.geonames.org\/2755249\/"}
{"obid":"niod:3110922","dcid":"10.17026\/dans-27c-sjsh","name":"Veendam","lat":"53.1067","lng":"6.87917","exid":"http:\/\/sws.geonames.org\/2745783\/","cname":"Nederland","cexid":"http:\/\/sws.geonames.org\/2750405\/","pname":"Veendam","pexid":"http:\/\/sws.geonames.org\/2745783\/","mname":"Gemeente Veendam","mexid":"http:\/\/sws.geonames.org\/2745782\/","prname":"Groningen","prexid":"http:\/\/sws.geonames.org\/2755249\/"}
{"obid":"niod:3110923","dcid":"10.17026\/dans-xx7-rcym","name":"Trimunt","lat":"53.1352","lng":"6.20419","exid":"http:\/\/sws.geonames.org\/2746155\/","cname":"Nederland","cexid":"http:\/\/sws.geonames.org\/2750405\/","pname":"Trimunt","pexid":"http:\/\/sws.geonames.org\/2746155\/","mname":"Marum","mexid":"http:\/\/sws.geonames.org\/2751110\/","prname":"Groningen","prexid":"http:\/\/sws.geonames.org\/2755249\/"}
{"obid":"niod:3110923","dcid":"10.17026\/dans-xx7-rcym","name":"Groningen","lat":"53.2192","lng":"6.56667","exid":"http:\/\/sws.geonames.org\/2755251\/","cname":"Nederland","cexid":"http:\/\/sws.geonames.org\/2750405\/","pname":"Groningen","pexid":"http:\/\/sws.geonames.org\/2755251\/","mname":"Gemeente Groningen","mexid":"http:\/\/sws.geonames.org\/2755250\/","prname":"Groningen","prexid":"http:\/\/sws.geonames.org\/2755249\/"}
{"obid":"niod:3110924","dcid":"10.17026\/dans-xaz-5fnp","name":"Groningen","lat":"53.2192","lng":"6.56667","exid":"http:\/\/sws.geonames.org\/2755251\/","cname":"Nederland","cexid":"http:\/\/sws.geonames.org\/2750405\/","pname":"Groningen","pexid":"http:\/\/sws.geonames.org\/2755251\/","mname":"Gemeente Groningen","mexid":"http:\/\/sws.geonames.org\/2755250\/","prname":"Groningen","prexid":"http:\/\/sws.geonames.org\/2755249\/"}
{"obid":"niod:3110925","dcid":"10.17026\/dans-xqy-nebx","name":"Groningen","lat":"53.2192","lng":"6.56667","exid":"http:\/\/sws.geonames.org\/2755251\/","cname":"Nederland","cexid":"http:\/\/sws.geonames.org\/2750405\/","pname":"Groningen","pexid":"http:\/\/sws.geonames.org\/2755251\/","mname":"Gemeente Groningen","mexid":"http:\/\/sws.geonames.org\/2755250\/","prname":"Groningen","prexid":"http:\/\/sws.geonames.org\/2755249\/"}
{"obid":"niod:3110925","dcid":"10.17026\/dans-xqy-nebx","name":"Sellingerbeetse","lat":"52.9325","lng":"7.08194","exid":"http:\/\/sws.geonames.org\/2747399\/","cname":"Nederland","cexid":"http:\/\/sws.geonames.org\/2750405\/","pname":"Sellingerbeetse","pexid":"http:\/\/sws.geonames.org\/2747399\/","mname":"Vlagtwedde","mexid":"http:\/\/sws.geonames.org\/2745460\/","prname":"Groningen","prexid":"http:\/\/sws.geonames.org\/2755249\/"}
{"obid":"niod:3110925","dcid":"10.17026\/dans-xqy-nebx","name":"Pieterburen","lat":"53.4008","lng":"6.45278","exid":"http:\/\/sws.geonames.org\/2748603\/","cname":"Nederland","cexid":"http:\/\/sws.geonames.org\/2750405\/","pname":"Pieterburen","pexid":"http:\/\/sws.geonames.org\/2748603\/","mname":"Gemeente De Marne","mexid":"http:\/\/sws.geonames.org\/6544229\/","prname":"Groningen","prexid":"http:\/\/sws.geonames.org\/2755249\/"}
{"obid":"niod:3110926","dcid":"10.17026\/dans-zn4-4xmw","name":"Midwolda","lat":"53.195","lng":"7.01389","exid":"http:\/\/sws.geonames.org\/2750832\/","cname":"Nederland","cexid":"http:\/\/sws.geonames.org\/2750405\/","pname":"Midwolda","pexid":"http:\/\/sws.geonames.org\/2750832\/","mname":"Gemeente  Oldambt","mexid":"http:\/\/sws.geonames.org\/7535498\/","prname":"Groningen","prexid":"http:\/\/sws.geonames.org\/2755249\/"}
{"obid":"niod:3110926","dcid":"10.17026\/dans-zn4-4xmw","name":"Heiligerlee","lat":"53.1567","lng":"7.00972","exid":"http:\/\/sws.geonames.org\/2754519\/","cname":"Nederland","cexid":"http:\/\/sws.geonames.org\/2750405\/","pname":"Heiligerlee","pexid":"http:\/\/sws.geonames.org\/2754519\/","mname":"Gemeente  Oldambt","mexid":"http:\/\/sws.geonames.org\/7535498\/","prname":"Groningen","prexid":"http:\/\/sws.geonames.org\/2755249\/"}
{"obid":"niod:3110926","dcid":"10.17026\/dans-zn4-4xmw","name":"Winschoten","lat":"53.1442","lng":"7.03472","exid":"http:\/\/sws.geonames.org\/2744344\/","cname":"Nederland","cexid":"http:\/\/sws.geonames.org\/2750405\/","pname":"Winschoten","pexid":"http:\/\/sws.geonames.org\/2744344\/","mname":"Gemeente  Oldambt","mexid":"http:\/\/sws.geonames.org\/7535498\/","prname":"Groningen","prexid":"http:\/\/sws.geonames.org\/2755249\/"}
{"obid":"niod:3110927","dcid":"10.17026\/dans-xag-sv8q","name":"Nederland","lat":"52.25","lng":"5.75","exid":"http:\/\/sws.geonames.org\/2750405\/","cname":"Nederland","cexid":"http:\/\/sws.geonames.org\/2750405\/"}
{"obid":"niod:3110927","dcid":"10.17026\/dans-xag-sv8q","name":"Duitsland","lat":"51.5","lng":"10.5","exid":"http:\/\/sws.geonames.org\/2921044\/","cname":"Duitsland","cexid":"http:\/\/sws.geonames.org\/2921044\/"}
{"obid":"niod:3110927","dcid":"10.17026\/dans-xag-sv8q","name":"Groningen","lat":"53.2192","lng":"6.56667","exid":"http:\/\/sws.geonames.org\/2755251\/","cname":"Nederland","cexid":"http:\/\/sws.geonames.org\/2750405\/","pname":"Groningen","pexid":"http:\/\/sws.geonames.org\/2755251\/","mname":"Gemeente Groningen","mexid":"http:\/\/sws.geonames.org\/2755250\/","prname":"Groningen","prexid":"http:\/\/sws.geonames.org\/2755249\/"}
{"obid":"niod:3110927","dcid":"10.17026\/dans-xag-sv8q","name":"Amsterdam","lat":"52.374","lng":"4.88969","exid":"http:\/\/sws.geonames.org\/2759794\/","cname":"Nederland","cexid":"http:\/\/sws.geonames.org\/2750405\/","pname":"Amsterdam","pexid":"http:\/\/sws.geonames.org\/2759794\/","mname":"Gemeente Amsterdam","mexid":"http:\/\/sws.geonames.org\/2759793\/","prname":"Noord-Holland","prexid":"http:\/\/sws.geonames.org\/2749879\/"}
{"obid":"niod:3110927","dcid":"10.17026\/dans-xag-sv8q","name":"Beetgem","lat":"53.2333","lng":"5.68333","exid":"http:\/\/sws.geonames.org\/2759283\/","cname":"Nederland","cexid":"http:\/\/sws.geonames.org\/2750405\/","pname":"Bitgum","pexid":"http:\/\/sws.geonames.org\/2759283\/","mname":"Menameradiel","mexid":"http:\/\/sws.geonames.org\/8260048\/","prname":"Friesland","prexid":"http:\/\/sws.geonames.org\/2755812\/"}
{"obid":"niod:3110927","dcid":"10.17026\/dans-xag-sv8q","name":"Sint Annaparochie","lat":"53.2762","lng":"5.65727","exid":"http:\/\/sws.geonames.org\/2747297\/","cname":"Nederland","cexid":"http:\/\/sws.geonames.org\/2750405\/","pname":"Sint Annaparochie","pexid":"http:\/\/sws.geonames.org\/2747297\/","mname":"Gemeente Het Bildt","mexid":"http:\/\/sws.geonames.org\/2754301\/","prname":"Friesland","prexid":"http:\/\/sws.geonames.org\/2755812\/"}
{"obid":"niod:3110927","dcid":"10.17026\/dans-xag-sv8q","name":"Lemmer","lat":"52.8462","lng":"5.70912","exid":"http:\/\/sws.geonames.org\/2751729\/","cname":"Nederland","cexid":"http:\/\/sws.geonames.org\/2750405\/","pname":"Lemmer","pexid":"http:\/\/sws.geonames.org\/2751729\/","mname":"De Friese Meren","mexid":"http:\/\/sws.geonames.org\/10287303\/","prname":"Friesland","prexid":"http:\/\/sws.geonames.org\/2755812\/"}
{"obid":"niod:3110928","dcid":"10.17026\/dans-zfr-pfmp","name":"Wedde","lat":"53.0692","lng":"7.07917","exid":"http:\/\/sws.geonames.org\/2744944\/","cname":"Nederland","cexid":"http:\/\/sws.geonames.org\/2750405\/","pname":"Wedde","pexid":"http:\/\/sws.geonames.org\/2744944\/","mname":"Gemeente Bellingwedde","mexid":"http:\/\/sws.geonames.org\/2759248\/","prname":"Groningen","prexid":"http:\/\/sws.geonames.org\/2755249\/"}
{"obid":"niod:3110928","dcid":"10.17026\/dans-zfr-pfmp","name":"Pekela","lat":"53.0597","lng":"6.9651","exid":"http:\/\/sws.geonames.org\/6544234\/","cname":"Nederland","cexid":"http:\/\/sws.geonames.org\/2750405\/","mname":"Pekela","mexid":"http:\/\/sws.geonames.org\/6544234\/","prname":"Groningen","prexid":"http:\/\/sws.geonames.org\/2755249\/"}
{"obid":"niod:3110928","dcid":"10.17026\/dans-zfr-pfmp","name":"Farmsum","lat":"53.3217","lng":"6.92639","exid":"http:\/\/sws.geonames.org\/2755929\/","cname":"Nederland","cexid":"http:\/\/sws.geonames.org\/2750405\/","pname":"Farmsum","pexid":"http:\/\/sws.geonames.org\/2755929\/","mname":"Gemeente Delfzijl","mexid":"http:\/\/sws.geonames.org\/2757339\/","prname":"Groningen","prexid":"http:\/\/sws.geonames.org\/2755249\/"}
{"obid":"niod:3110929","dcid":"10.17026\/dans-xbk-hhrp","name":"Grijpskerk","lat":"53.2625","lng":"6.30833","exid":"http:\/\/sws.geonames.org\/2755317\/","cname":"Nederland","cexid":"http:\/\/sws.geonames.org\/2750405\/","pname":"Grijpskerk","pexid":"http:\/\/sws.geonames.org\/2755317\/","mname":"Gemeente Zuidhorn","mexid":"http:\/\/sws.geonames.org\/2743693\/","prname":"Groningen","prexid":"http:\/\/sws.geonames.org\/2755249\/"}
{"obid":"niod:3110929","dcid":"10.17026\/dans-xbk-hhrp","name":"Groningen","lat":"53.2192","lng":"6.56667","exid":"http:\/\/sws.geonames.org\/2755251\/","cname":"Nederland","cexid":"http:\/\/sws.geonames.org\/2750405\/","pname":"Groningen","pexid":"http:\/\/sws.geonames.org\/2755251\/","mname":"Gemeente Groningen","mexid":"http:\/\/sws.geonames.org\/2755250\/","prname":"Groningen","prexid":"http:\/\/sws.geonames.org\/2755249\/"}
{"obid":"niod:3110930","dcid":"10.17026\/dans-27p-qyfe","name":"Groningen","lat":"53.2192","lng":"6.56667","exid":"http:\/\/sws.geonames.org\/2755251\/","cname":"Nederland","cexid":"http:\/\/sws.geonames.org\/2750405\/","pname":"Groningen","pexid":"http:\/\/sws.geonames.org\/2755251\/","mname":"Gemeente Groningen","mexid":"http:\/\/sws.geonames.org\/2755250\/","prname":"Groningen","prexid":"http:\/\/sws.geonames.org\/2755249\/"}
{"obid":"niod:3110931","dcid":"10.17026\/dans-zu9-5xgr","name":"Sobibor","lat":"51.4708","lng":"23.6457","exid":"http:\/\/sws.geonames.org\/758724\/","cname":"Polen","cexid":"http:\/\/sws.geonames.org\/798544\/"}
{"obid":"niod:3110931","dcid":"10.17026\/dans-zu9-5xgr","name":"Poland","lat":"52","lng":"20","exid":"http:\/\/sws.geonames.org\/798544\/","cname":"Poland","cexid":"http:\/\/sws.geonames.org\/798544\/"}
{"obid":"niod:3110931","dcid":"10.17026\/dans-zu9-5xgr","name":"Czech Republic","lat":"49.75","lng":"15","exid":"http:\/\/sws.geonames.org\/3077311\/","cname":"Czech Republic","cexid":"http:\/\/sws.geonames.org\/3077311\/"}
{"obid":"niod:3110936","dcid":"10.17026\/dans-z3h-s9c7","name":"Sobibor","lat":"51.4708","lng":"23.6457","exid":"http:\/\/sws.geonames.org\/758724\/","cname":"Polen","cexid":"http:\/\/sws.geonames.org\/798544\/"}
{"obid":"niod:3110936","dcid":"10.17026\/dans-z3h-s9c7","name":"Poland","lat":"52","lng":"20","exid":"http:\/\/sws.geonames.org\/798544\/","cname":"Poland","cexid":"http:\/\/sws.geonames.org\/798544\/"}
{"obid":"niod:3110936","dcid":"10.17026\/dans-z3h-s9c7","name":"Czech Republic","lat":"49.75","lng":"15","exid":"http:\/\/sws.geonames.org\/3077311\/","cname":"Czech Republic","cexid":"http:\/\/sws.geonames.org\/3077311\/"}
