{"obid":"niod:2759207","dcid":"http:\/\/www.oorloginblik.nl\/lijst\/54442262","name":"Kuching","lat":"1.55","lng":"110.333","exid":"http:\/\/sws.geonames.org\/1735634\/","cname":"Maleisi\u00eb","cexid":"http:\/\/sws.geonames.org\/1733045\/","pname":"Kuching","pexid":"http:\/\/sws.geonames.org\/1735634\/"}
{"obid":"niod:2759207","dcid":"http:\/\/www.oorloginblik.nl\/lijst\/54442262","name":"Schagen","lat":"52.7875","lng":"4.79861","exid":"http:\/\/sws.geonames.org\/2747720\/","cname":"Nederland","cexid":"http:\/\/sws.geonames.org\/2750405\/","pname":"Schagen","pexid":"http:\/\/sws.geonames.org\/2747720\/","mname":"Gemeente Schagen","mexid":"http:\/\/sws.geonames.org\/2747719\/","prname":"Noord-Holland","prexid":"http:\/\/sws.geonames.org\/2749879\/"}
{"obid":"niod:2759208","dcid":"http:\/\/www.oorloginblik.nl\/lijst\/54438520","name":"Middelharnis","lat":"51.7575","lng":"4.16528","exid":"http:\/\/sws.geonames.org\/2750884\/","cname":"Nederland","cexid":"http:\/\/sws.geonames.org\/2750405\/","pname":"Middelharnis","pexid":"http:\/\/sws.geonames.org\/2750884\/","mname":"Gemeente Goeree-Overflakkee","mexid":"http:\/\/sws.geonames.org\/8549513\/","prname":"Zuid-Holland","prexid":"http:\/\/sws.geonames.org\/2743698\/"}
{"obid":"niod:2759208","dcid":"http:\/\/www.oorloginblik.nl\/lijst\/54438520","name":"Belgi\u00eb","lat":"50.75","lng":"4.5","exid":"http:\/\/sws.geonames.org\/2802361\/","cname":"Belgi\u00eb","cexid":"http:\/\/sws.geonames.org\/2802361\/"}
{"obid":"niod:2759208","dcid":"http:\/\/www.oorloginblik.nl\/lijst\/54438520","name":"Leeuwarden","lat":"53.2014","lng":"5.80859","exid":"http:\/\/sws.geonames.org\/2751792\/","cname":"Nederland","cexid":"http:\/\/sws.geonames.org\/2750405\/","mname":"Leeuwarden","mexid":"http:\/\/sws.geonames.org\/2751791\/","prname":"Friesland","prexid":"http:\/\/sws.geonames.org\/2755812\/"}
{"obid":"niod:2759208","dcid":"http:\/\/www.oorloginblik.nl\/lijst\/54438520","name":"Veenklooster","lat":"53.2632","lng":"6.10222","exid":"http:\/\/sws.geonames.org\/2745754\/","cname":"Nederland","cexid":"http:\/\/sws.geonames.org\/2750405\/","pname":"Veenklooster","pexid":"http:\/\/sws.geonames.org\/2745754\/","mname":"Kollumerland en Nieuwkruisland","mexid":"http:\/\/sws.geonames.org\/2752523\/","prname":"Friesland","prexid":"http:\/\/sws.geonames.org\/2755812\/"}
{"obid":"niod:2759209","dcid":"http:\/\/www.oorloginblik.nl\/lijst\/54440475","name":"Middelharnis","lat":"51.7575","lng":"4.16528","exid":"http:\/\/sws.geonames.org\/2750884\/","cname":"Nederland","cexid":"http:\/\/sws.geonames.org\/2750405\/","pname":"Middelharnis","pexid":"http:\/\/sws.geonames.org\/2750884\/","mname":"Gemeente Goeree-Overflakkee","mexid":"http:\/\/sws.geonames.org\/8549513\/","prname":"Zuid-Holland","prexid":"http:\/\/sws.geonames.org\/2743698\/"}
{"obid":"niod:2759209","dcid":"http:\/\/www.oorloginblik.nl\/lijst\/54440475","name":"Groot-Brittanni\u00eb","lat":"54.7584","lng":"-2.6953","exid":"http:\/\/sws.geonames.org\/2635167\/","cname":"Verenigd Koninkrijk","cexid":"http:\/\/sws.geonames.org\/2635167\/"}
{"obid":"niod:2759209","dcid":"http:\/\/www.oorloginblik.nl\/lijst\/54440475","name":"Leeuwarden","lat":"53.2014","lng":"5.80859","exid":"http:\/\/sws.geonames.org\/2751792\/","cname":"Nederland","cexid":"http:\/\/sws.geonames.org\/2750405\/","mname":"Leeuwarden","mexid":"http:\/\/sws.geonames.org\/2751791\/","prname":"Friesland","prexid":"http:\/\/sws.geonames.org\/2755812\/"}
{"obid":"niod:2759209","dcid":"http:\/\/www.oorloginblik.nl\/lijst\/54440475","name":"Veenwouden","lat":"53.2356","lng":"5.98832","exid":"http:\/\/sws.geonames.org\/2745743\/","cname":"Nederland","cexid":"http:\/\/sws.geonames.org\/2750405\/","pname":"Feanw\u00e2lden","pexid":"http:\/\/sws.geonames.org\/2745743\/","mname":"Gemeente Dantumadiel","mexid":"http:\/\/sws.geonames.org\/2757834\/","prname":"Friesland","prexid":"http:\/\/sws.geonames.org\/2755812\/"}
{"obid":"niod:2759210","dcid":"http:\/\/www.oorloginblik.nl\/lijst\/54439543","name":"Middelharnis","lat":"51.7575","lng":"4.16528","exid":"http:\/\/sws.geonames.org\/2750884\/","cname":"Nederland","cexid":"http:\/\/sws.geonames.org\/2750405\/","pname":"Middelharnis","pexid":"http:\/\/sws.geonames.org\/2750884\/","mname":"Gemeente Goeree-Overflakkee","mexid":"http:\/\/sws.geonames.org\/8549513\/","prname":"Zuid-Holland","prexid":"http:\/\/sws.geonames.org\/2743698\/"}
{"obid":"niod:2759210","dcid":"http:\/\/www.oorloginblik.nl\/lijst\/54439543","name":"Leeuwarden","lat":"53.2014","lng":"5.80859","exid":"http:\/\/sws.geonames.org\/2751792\/","cname":"Nederland","cexid":"http:\/\/sws.geonames.org\/2750405\/","mname":"Leeuwarden","mexid":"http:\/\/sws.geonames.org\/2751791\/","prname":"Friesland","prexid":"http:\/\/sws.geonames.org\/2755812\/"}
{"obid":"niod:2759213","dcid":"http:\/\/www.oorloginblik.nl\/lijst\/54438969","name":"Kawasaki","lat":"35.5206","lng":"139.717","exid":"http:\/\/sws.geonames.org\/1859642\/","cname":"Japan","cexid":"http:\/\/sws.geonames.org\/1861060\/","pname":"Kawasaki","pexid":"http:\/\/sws.geonames.org\/1859642\/"}
{"obid":"niod:2759213","dcid":"http:\/\/www.oorloginblik.nl\/lijst\/54438969","name":"Kobe","lat":"34.6913","lng":"135.183","exid":"http:\/\/sws.geonames.org\/1859171\/","cname":"Japan","cexid":"http:\/\/sws.geonames.org\/1861060\/","pname":"Kobe","pexid":"http:\/\/sws.geonames.org\/1859171\/"}
{"obid":"niod:2759213","dcid":"http:\/\/www.oorloginblik.nl\/lijst\/54438969","name":"Overloon, Noord-Brabant","lat":"51.5717","lng":"5.94722","exid":"http:\/\/sws.geonames.org\/2748833\/","cname":"Nederland","cexid":"http:\/\/sws.geonames.org\/2750405\/","pname":"Overloon","pexid":"http:\/\/sws.geonames.org\/2748833\/","mname":"Gemeente Boxmeer","mexid":"http:\/\/sws.geonames.org\/2758461\/","prname":"Noord-Brabant","prexid":"http:\/\/sws.geonames.org\/2749990\/"}
{"obid":"niod:2759213","dcid":"http:\/\/www.oorloginblik.nl\/lijst\/54438969","name":"Soest, Utrecht","lat":"52.1733","lng":"5.29167","exid":"http:\/\/sws.geonames.org\/2747034\/","cname":"Nederland","cexid":"http:\/\/sws.geonames.org\/2750405\/","pname":"Soest","pexid":"http:\/\/sws.geonames.org\/2747034\/","mname":"Gemeente Soest","mexid":"http:\/\/sws.geonames.org\/2747033\/","prname":"Utrecht","prexid":"http:\/\/sws.geonames.org\/2745909\/"}
{"obid":"niod:2759213","dcid":"http:\/\/www.oorloginblik.nl\/lijst\/54438969","name":"Noord-Holland, Nederland","lat":"52.5833","lng":"4.91667","exid":"http:\/\/sws.geonames.org\/2749879\/","cname":"Nederland","cexid":"http:\/\/sws.geonames.org\/2750405\/","mexid":"http:\/\/sws.geonames.org\/\/","prname":"Noord-Holland","prexid":"http:\/\/sws.geonames.org\/2749879\/"}
{"obid":"niod:2759213","dcid":"http:\/\/www.oorloginblik.nl\/lijst\/54438969","name":"Huizum","lat":"53.1917","lng":"5.81119","exid":"http:\/\/sws.geonames.org\/2753470\/","cname":"Nederland","cexid":"http:\/\/sws.geonames.org\/2750405\/","pname":"Huizum","pexid":"http:\/\/sws.geonames.org\/2753470\/","mname":"Leeuwarden","mexid":"http:\/\/sws.geonames.org\/2751791\/","prname":"Friesland","prexid":"http:\/\/sws.geonames.org\/2755812\/"}
{"obid":"niod:2759214","dcid":"http:\/\/www.oorloginblik.nl\/lijst\/54439735","name":"Friesland","lat":"51.9425","lng":"6.17639","exid":"http:\/\/sws.geonames.org\/6544699\/","cname":"Nederland","cexid":"http:\/\/sws.geonames.org\/2750405\/","pname":"Friesland","pexid":"http:\/\/sws.geonames.org\/6544699\/","mname":"Montferland","mexid":"http:\/\/sws.geonames.org\/6544256\/","prname":"Gelderland","prexid":"http:\/\/sws.geonames.org\/2755634\/"}
{"obid":"niod:2759215","dcid":"http:\/\/www.oorloginblik.nl\/lijst\/54439956","name":"Curacao","lat":"12.1667","lng":"-68.9667","exid":"http:\/\/sws.geonames.org\/7626836\/","cname":"Land Cura\u00e7ao","cexid":"http:\/\/sws.geonames.org\/7626836\/"}
{"obid":"niod:2759218","dcid":"http:\/\/www.oorloginblik.nl\/lijst\/54437833","name":"Middelharnis","lat":"51.7575","lng":"4.16528","exid":"http:\/\/sws.geonames.org\/2750884\/","cname":"Nederland","cexid":"http:\/\/sws.geonames.org\/2750405\/","pname":"Middelharnis","pexid":"http:\/\/sws.geonames.org\/2750884\/","mname":"Gemeente Goeree-Overflakkee","mexid":"http:\/\/sws.geonames.org\/8549513\/","prname":"Zuid-Holland","prexid":"http:\/\/sws.geonames.org\/2743698\/"}
{"obid":"niod:2759218","dcid":"http:\/\/www.oorloginblik.nl\/lijst\/54437833","name":"Salzburg, Oostenrijk","lat":"47.7994","lng":"13.044","exid":"http:\/\/sws.geonames.org\/2766824\/","cname":"Oostenrijk","cexid":"http:\/\/sws.geonames.org\/2782113\/"}
{"obid":"niod:2759218","dcid":"http:\/\/www.oorloginblik.nl\/lijst\/54437833","name":"Leeuwarden","lat":"53.2014","lng":"5.80859","exid":"http:\/\/sws.geonames.org\/2751792\/","cname":"Nederland","cexid":"http:\/\/sws.geonames.org\/2750405\/","mname":"Leeuwarden","mexid":"http:\/\/sws.geonames.org\/2751791\/","prname":"Friesland","prexid":"http:\/\/sws.geonames.org\/2755812\/"}
{"obid":"niod:2759218","dcid":"http:\/\/www.oorloginblik.nl\/lijst\/54437833","name":"Franeker","lat":"53.1855","lng":"5.54123","exid":"http:\/\/sws.geonames.org\/2755845\/","cname":"Nederland","cexid":"http:\/\/sws.geonames.org\/2750405\/","pname":"Franeker","pexid":"http:\/\/sws.geonames.org\/2755845\/","mname":"Gemeente Franekeradeel","mexid":"http:\/\/sws.geonames.org\/2755843\/","prname":"Friesland","prexid":"http:\/\/sws.geonames.org\/2755812\/"}
{"obid":"niod:2759218","dcid":"http:\/\/www.oorloginblik.nl\/lijst\/54437833","name":"Harlingen","lat":"53.1748","lng":"5.42244","exid":"http:\/\/sws.geonames.org\/2754817\/","cname":"Nederland","cexid":"http:\/\/sws.geonames.org\/2750405\/","pname":"Harlingen","pexid":"http:\/\/sws.geonames.org\/2754817\/","mname":"Gemeente Harlingen","mexid":"http:\/\/sws.geonames.org\/2754816\/","prname":"Friesland","prexid":"http:\/\/sws.geonames.org\/2755812\/"}
{"obid":"niod:2759219","dcid":"http:\/\/www.oorloginblik.nl\/lijst\/54438182","name":"Katwijk aan de Maas, Noord-Brabant","lat":"51.75","lng":"5.87083","exid":"http:\/\/sws.geonames.org\/2753013\/","cname":"Nederland","cexid":"http:\/\/sws.geonames.org\/2750405\/","mname":"Cuijk","mexid":"http:\/\/sws.geonames.org\/2757873\/","prname":"Noord-Brabant","prexid":"http:\/\/sws.geonames.org\/2749990\/"}
{"obid":"niod:2759219","dcid":"http:\/\/www.oorloginblik.nl\/lijst\/54438182","name":"Middelharnis","lat":"51.7575","lng":"4.16528","exid":"http:\/\/sws.geonames.org\/2750884\/","cname":"Nederland","cexid":"http:\/\/sws.geonames.org\/2750405\/","pname":"Middelharnis","pexid":"http:\/\/sws.geonames.org\/2750884\/","mname":"Gemeente Goeree-Overflakkee","mexid":"http:\/\/sws.geonames.org\/8549513\/","prname":"Zuid-Holland","prexid":"http:\/\/sws.geonames.org\/2743698\/"}
{"obid":"niod:2759219","dcid":"http:\/\/www.oorloginblik.nl\/lijst\/54438182","name":"Veghel, Noord-Brabant","lat":"51.6167","lng":"5.54861","exid":"http:\/\/sws.geonames.org\/2745726\/","cname":"Nederland","cexid":"http:\/\/sws.geonames.org\/2750405\/","pname":"Veghel","pexid":"http:\/\/sws.geonames.org\/2745726\/","mname":"Gemeente Veghel","mexid":"http:\/\/sws.geonames.org\/2745725\/","prname":"Noord-Brabant","prexid":"http:\/\/sws.geonames.org\/2749990\/"}
{"obid":"niod:2759219","dcid":"http:\/\/www.oorloginblik.nl\/lijst\/54438182","name":"Leeuwarden","lat":"53.2014","lng":"5.80859","exid":"http:\/\/sws.geonames.org\/2751792\/","cname":"Nederland","cexid":"http:\/\/sws.geonames.org\/2750405\/","mname":"Leeuwarden","mexid":"http:\/\/sws.geonames.org\/2751791\/","prname":"Friesland","prexid":"http:\/\/sws.geonames.org\/2755812\/"}
{"obid":"niod:2759222","dcid":"http:\/\/www.oorloginblik.nl\/lijst\/54442261","name":"Weinsberg","lat":"49.1513","lng":"9.28762","exid":"http:\/\/sws.geonames.org\/2812158\/","cname":"Duitsland","cexid":"http:\/\/sws.geonames.org\/2921044\/"}
{"obid":"niod:2759222","dcid":"http:\/\/www.oorloginblik.nl\/lijst\/54442261","name":"Middelharnis","lat":"51.7575","lng":"4.16528","exid":"http:\/\/sws.geonames.org\/2750884\/","cname":"Nederland","cexid":"http:\/\/sws.geonames.org\/2750405\/","pname":"Middelharnis","pexid":"http:\/\/sws.geonames.org\/2750884\/","mname":"Gemeente Goeree-Overflakkee","mexid":"http:\/\/sws.geonames.org\/8549513\/","prname":"Zuid-Holland","prexid":"http:\/\/sws.geonames.org\/2743698\/"}
{"obid":"niod:2759222","dcid":"http:\/\/www.oorloginblik.nl\/lijst\/54442261","name":"Weinsberg","lat":"49.1513","lng":"9.28762","exid":"http:\/\/sws.geonames.org\/2812158\/","cname":"Duitsland","cexid":"http:\/\/sws.geonames.org\/2921044\/"}
{"obid":"niod:2759222","dcid":"http:\/\/www.oorloginblik.nl\/lijst\/54442261","name":"Leeuwarden","lat":"53.2014","lng":"5.80859","exid":"http:\/\/sws.geonames.org\/2751792\/","cname":"Nederland","cexid":"http:\/\/sws.geonames.org\/2750405\/","mname":"Leeuwarden","mexid":"http:\/\/sws.geonames.org\/2751791\/","prname":"Friesland","prexid":"http:\/\/sws.geonames.org\/2755812\/"}
{"obid":"niod:2759222","dcid":"http:\/\/www.oorloginblik.nl\/lijst\/54442261","name":"Scheveningen","lat":"52.1046","lng":"4.27557","exid":"http:\/\/sws.geonames.org\/2747599\/","cname":"Nederland","cexid":"http:\/\/sws.geonames.org\/2750405\/","pname":"Scheveningen","pexid":"http:\/\/sws.geonames.org\/2747599\/","mname":"'s-Gravenhage","mexid":"http:\/\/sws.geonames.org\/2747372\/","prname":"Zuid-Holland","prexid":"http:\/\/sws.geonames.org\/2743698\/"}
{"obid":"niod:2759225","dcid":"http:\/\/www.oorloginblik.nl\/lijst\/54441737","name":"Gent, Belgi\u00eb","lat":"51.05","lng":"3.71667","exid":"http:\/\/sws.geonames.org\/2797656\/","cname":"Belgi\u00eb","cexid":"http:\/\/sws.geonames.org\/2802361\/"}
{"obid":"niod:2759225","dcid":"http:\/\/www.oorloginblik.nl\/lijst\/54441737","name":"Ferwerd","lat":"53.3378","lng":"5.82533","exid":"http:\/\/sws.geonames.org\/2755920\/","cname":"Nederland","cexid":"http:\/\/sws.geonames.org\/2750405\/","pname":"Ferwert","pexid":"http:\/\/sws.geonames.org\/2755920\/","mname":"Gemeente Ferwerderadiel","mexid":"http:\/\/sws.geonames.org\/2755918\/","prname":"Friesland","prexid":"http:\/\/sws.geonames.org\/2755812\/"}
{"obid":"niod:2759226","dcid":"http:\/\/www.oorloginblik.nl\/lijst\/54440892","name":"Houffalize","lat":"50.1324","lng":"5.78962","exid":"http:\/\/sws.geonames.org\/2795322\/","cname":"Belgi\u00eb","cexid":"http:\/\/sws.geonames.org\/2802361\/"}
{"obid":"niod:2759226","dcid":"http:\/\/www.oorloginblik.nl\/lijst\/54440892","name":"Terschelling","lat":"53.4","lng":"5.35","exid":"http:\/\/sws.geonames.org\/2746412\/","cname":"Nederland","cexid":"http:\/\/sws.geonames.org\/2750405\/","mname":"Terschelling","mexid":"http:\/\/sws.geonames.org\/2746412\/","prname":"Friesland","prexid":"http:\/\/sws.geonames.org\/2755812\/"}
{"obid":"niod:2759228","dcid":"http:\/\/www.oorloginblik.nl\/lijst\/55674521","name":"Aalsmeer, Nederland","lat":"52.2592","lng":"4.75972","exid":"http:\/\/sws.geonames.org\/2760134\/","cname":"Nederland","cexid":"http:\/\/sws.geonames.org\/2750405\/","pname":"Aalsmeer","pexid":"http:\/\/sws.geonames.org\/2760134\/","mname":"Gemeente Aalsmeer","mexid":"http:\/\/sws.geonames.org\/2760133\/","prname":"Noord-Holland","prexid":"http:\/\/sws.geonames.org\/2749879\/"}
{"obid":"niod:2759229","dcid":"http:\/\/www.oorloginblik.nl\/lijst\/55674600","name":"Westervoort, Gelderland","lat":"51.9558","lng":"5.97222","exid":"http:\/\/sws.geonames.org\/2744675\/","cname":"Nederland","cexid":"http:\/\/sws.geonames.org\/2750405\/","pname":"Westervoort","pexid":"http:\/\/sws.geonames.org\/2744675\/","mname":"Gemeente Westervoort","mexid":"http:\/\/sws.geonames.org\/2744674\/","prname":"Gelderland","prexid":"http:\/\/sws.geonames.org\/2755634\/"}
{"obid":"niod:2759229","dcid":"http:\/\/www.oorloginblik.nl\/lijst\/55674600","name":"Velsen, Noord-Holland","lat":"52.46","lng":"4.65","exid":"http:\/\/sws.geonames.org\/2745673\/","cname":"Nederland","cexid":"http:\/\/sws.geonames.org\/2750405\/","pname":"Velsen-Zuid","pexid":"http:\/\/sws.geonames.org\/2745673\/","mname":"Velsen","mexid":"http:\/\/sws.geonames.org\/2745675\/","prname":"Noord-Holland","prexid":"http:\/\/sws.geonames.org\/2749879\/"}
{"obid":"niod:2759229","dcid":"http:\/\/www.oorloginblik.nl\/lijst\/55674600","name":"Borgharen, Limburg","lat":"50.8775","lng":"5.6875","exid":"http:\/\/sws.geonames.org\/2758611\/","cname":"Nederland","cexid":"http:\/\/sws.geonames.org\/2750405\/","pname":"Borgharen","pexid":"http:\/\/sws.geonames.org\/2758611\/","mname":"Maastricht","mexid":"http:\/\/sws.geonames.org\/2751282\/","prname":"Limburg","prexid":"http:\/\/sws.geonames.org\/2751596\/"}
{"obid":"niod:2759229","dcid":"http:\/\/www.oorloginblik.nl\/lijst\/55674600","name":"Kootwijk","lat":"52.185","lng":"5.77083","exid":"http:\/\/sws.geonames.org\/2752443\/","cname":"Nederland","cexid":"http:\/\/sws.geonames.org\/2750405\/","pname":"Kootwijk","pexid":"http:\/\/sws.geonames.org\/2752443\/","mname":"Gemeente Barneveld","mexid":"http:\/\/sws.geonames.org\/2759406\/","prname":"Gelderland","prexid":"http:\/\/sws.geonames.org\/2755634\/"}
{"obid":"niod:2759229","dcid":"http:\/\/www.oorloginblik.nl\/lijst\/55674600","name":"Veluwe","lat":"52.25","lng":"5.8","exid":"http:\/\/sws.geonames.org\/2745666\/","cname":"Nederland","cexid":"http:\/\/sws.geonames.org\/2750405\/","mexid":"http:\/\/sws.geonames.org\/\/","prname":"Gelderland","prexid":"http:\/\/sws.geonames.org\/2755634\/"}
{"obid":"niod:2759231","dcid":"http:\/\/www.oorloginblik.nl\/lijst\/55674561","name":"Haarlem, Nederland","lat":"52.3808","lng":"4.63683","exid":"http:\/\/sws.geonames.org\/2755003\/","cname":"Nederland","cexid":"http:\/\/sws.geonames.org\/2750405\/","pname":"Haarlem","pexid":"http:\/\/sws.geonames.org\/2755003\/","mname":"Gemeente Haarlem","mexid":"http:\/\/sws.geonames.org\/2755002\/","prname":"Noord-Holland","prexid":"http:\/\/sws.geonames.org\/2749879\/"}
{"obid":"niod:2759231","dcid":"http:\/\/www.oorloginblik.nl\/lijst\/55674561","name":" Heelsum, Nederland","lat":"51.9842","lng":"5.75833","exid":"http:\/\/sws.geonames.org\/2754703\/","cname":"Nederland","cexid":"http:\/\/sws.geonames.org\/2750405\/","pname":"Heelsum","pexid":"http:\/\/sws.geonames.org\/2754703\/","mname":"Gemeente Renkum","mexid":"http:\/\/sws.geonames.org\/2748235\/","prname":"Gelderland","prexid":"http:\/\/sws.geonames.org\/2755634\/"}
{"obid":"niod:2759231","dcid":"http:\/\/www.oorloginblik.nl\/lijst\/55674561","name":"Renkum, Nederland","lat":"51.9767","lng":"5.73333","exid":"http:\/\/sws.geonames.org\/2748236\/","cname":"Nederland","cexid":"http:\/\/sws.geonames.org\/2750405\/","pname":"Renkum","pexid":"http:\/\/sws.geonames.org\/2748236\/","mname":"Gemeente Renkum","mexid":"http:\/\/sws.geonames.org\/2748235\/","prname":"Gelderland","prexid":"http:\/\/sws.geonames.org\/2755634\/"}
{"obid":"niod:2759232","dcid":"http:\/\/www.oorloginblik.nl\/lijst\/55674468","name":"IJmuiden, Nederland","lat":"52.4603","lng":"4.61048","exid":"http:\/\/sws.geonames.org\/2753376\/","cname":"Nederland","cexid":"http:\/\/sws.geonames.org\/2750405\/","pname":"IJmuiden","pexid":"http:\/\/sws.geonames.org\/2753376\/","mname":"Gemeente Velsen","mexid":"http:\/\/sws.geonames.org\/2745675\/","prname":"Noord-Holland","prexid":"http:\/\/sws.geonames.org\/2749879\/"}
{"obid":"niod:2759232","dcid":"http:\/\/www.oorloginblik.nl\/lijst\/55674468","name":"Velsen, Nederland","lat":"52.46","lng":"4.65","exid":"http:\/\/sws.geonames.org\/2745673\/","cname":"Nederland","cexid":"http:\/\/sws.geonames.org\/2750405\/","pname":"Velsen-Zuid","pexid":"http:\/\/sws.geonames.org\/2745673\/","mname":"Velsen","mexid":"http:\/\/sws.geonames.org\/2745675\/","prname":"Noord-Holland","prexid":"http:\/\/sws.geonames.org\/2749879\/"}
{"obid":"niod:2759233","dcid":"http:\/\/www.oorloginblik.nl\/lijst\/55674401","name":"Kamp Vught","lat":"51.6656","lng":"5.2591","exid":"http:\/\/sws.geonames.org\/6620989\/","cname":"Nederland","cexid":"http:\/\/sws.geonames.org\/2750405\/","mname":"Vught","mexid":"http:\/\/sws.geonames.org\/2745153\/","prname":"Noord-Brabant","prexid":"http:\/\/sws.geonames.org\/2749990\/"}
{"obid":"niod:2759233","dcid":"http:\/\/www.oorloginblik.nl\/lijst\/55674401","name":"Wassenaar","lat":"52.1458","lng":"4.40278","exid":"http:\/\/sws.geonames.org\/2744991\/","cname":"Nederland","cexid":"http:\/\/sws.geonames.org\/2750405\/","pname":"Wassenaar","pexid":"http:\/\/sws.geonames.org\/2744991\/","mname":"Gemeente Wassenaar","mexid":"http:\/\/sws.geonames.org\/2744989\/","prname":"Zuid-Holland","prexid":"http:\/\/sws.geonames.org\/2743698\/"}
{"obid":"niod:2759233","dcid":"http:\/\/www.oorloginblik.nl\/lijst\/55674401","name":"Yogyakarta","lat":"-7.78278","lng":"110.361","exid":"http:\/\/sws.geonames.org\/1621177\/","cname":"Indonesi\u00eb","cexid":"http:\/\/sws.geonames.org\/1643084\/","pname":"Yogyakarta","pexid":"http:\/\/sws.geonames.org\/1621177\/"}
{"obid":"niod:2759233","dcid":"http:\/\/www.oorloginblik.nl\/lijst\/55674401","name":"Kamp Vught","lat":"51.6656","lng":"5.2591","exid":"http:\/\/sws.geonames.org\/6620989\/","cname":"Nederland","cexid":"http:\/\/sws.geonames.org\/2750405\/","mname":"Vught","mexid":"http:\/\/sws.geonames.org\/2745153\/","prname":"Noord-Brabant","prexid":"http:\/\/sws.geonames.org\/2749990\/"}
{"obid":"niod:2759233","dcid":"http:\/\/www.oorloginblik.nl\/lijst\/55674401","name":"Wassenaar","lat":"52.1458","lng":"4.40278","exid":"http:\/\/sws.geonames.org\/2744991\/","cname":"Nederland","cexid":"http:\/\/sws.geonames.org\/2750405\/","pname":"Wassenaar","pexid":"http:\/\/sws.geonames.org\/2744991\/","mname":"Gemeente Wassenaar","mexid":"http:\/\/sws.geonames.org\/2744989\/","prname":"Zuid-Holland","prexid":"http:\/\/sws.geonames.org\/2743698\/"}
{"obid":"niod:2759233","dcid":"http:\/\/www.oorloginblik.nl\/lijst\/55674401","name":"Bloemendaal, Noord-Holland","lat":"52.4025","lng":"4.62222","exid":"http:\/\/sws.geonames.org\/2758804\/","cname":"Nederland","cexid":"http:\/\/sws.geonames.org\/2750405\/","pname":"Bloemendaal","pexid":"http:\/\/sws.geonames.org\/2758804\/","mname":"Gemeente Bloemendaal","mexid":"http:\/\/sws.geonames.org\/2758802\/","prname":"Noord-Holland","prexid":"http:\/\/sws.geonames.org\/2749879\/"}
{"obid":"niod:2759233","dcid":"http:\/\/www.oorloginblik.nl\/lijst\/55674401","name":"Rhenen, Utrecht","lat":"51.9592","lng":"5.56806","exid":"http:\/\/sws.geonames.org\/2748185\/","cname":"Nederland","cexid":"http:\/\/sws.geonames.org\/2750405\/","pname":"Rhenen","pexid":"http:\/\/sws.geonames.org\/2748185\/","mname":"Gemeente Rhenen","mexid":"http:\/\/sws.geonames.org\/2748184\/","prname":"Utrecht","prexid":"http:\/\/sws.geonames.org\/2745909\/"}
{"obid":"niod:2759233","dcid":"http:\/\/www.oorloginblik.nl\/lijst\/55674401","name":"Kamp Westerbork","lat":"52.9167","lng":"6.60808","exid":"http:\/\/sws.geonames.org\/11184993\/","cname":"Nederland","cexid":"http:\/\/sws.geonames.org\/2750405\/","mname":"Midden-Drenthe","mexid":"http:\/\/sws.geonames.org\/6544297\/","prname":"Drenthe","prexid":"http:\/\/sws.geonames.org\/2756631\/"}
{"obid":"niod:2759233","dcid":"http:\/\/www.oorloginblik.nl\/lijst\/55674401","name":"Nijmegen","lat":"51.8425","lng":"5.85278","exid":"http:\/\/sws.geonames.org\/2750053\/","cname":"Nederland","cexid":"http:\/\/sws.geonames.org\/2750405\/","pname":"Nijmegen","pexid":"http:\/\/sws.geonames.org\/2750053\/","mname":"Gemeente Nijmegen","mexid":"http:\/\/sws.geonames.org\/2750052\/","prname":"Gelderland","prexid":"http:\/\/sws.geonames.org\/2755634\/"}
{"obid":"niod:2759233","dcid":"http:\/\/www.oorloginblik.nl\/lijst\/55674401","name":"Rotterdam","lat":"51.9225","lng":"4.47917","exid":"http:\/\/sws.geonames.org\/2747891\/","cname":"Nederland","cexid":"http:\/\/sws.geonames.org\/2750405\/","pname":"Rotterdam","pexid":"http:\/\/sws.geonames.org\/2747891\/","mname":"Gemeente Rotterdam","mexid":"http:\/\/sws.geonames.org\/2747890\/","prname":"Zuid-Holland","prexid":"http:\/\/sws.geonames.org\/2743698\/"}
{"obid":"niod:2759233","dcid":"http:\/\/www.oorloginblik.nl\/lijst\/55674401","name":"Venray","lat":"51.525","lng":"5.975","exid":"http:\/\/sws.geonames.org\/2745634\/","cname":"Nederland","cexid":"http:\/\/sws.geonames.org\/2750405\/","pname":"Venray","pexid":"http:\/\/sws.geonames.org\/2745634\/","mname":"Gemeente Venray","mexid":"http:\/\/sws.geonames.org\/2745633\/","prname":"Limburg","prexid":"http:\/\/sws.geonames.org\/2751596\/"}
{"obid":"niod:2759233","dcid":"http:\/\/www.oorloginblik.nl\/lijst\/55674401","name":"Haarlem","lat":"52.3808","lng":"4.63683","exid":"http:\/\/sws.geonames.org\/2755003\/","cname":"Nederland","cexid":"http:\/\/sws.geonames.org\/2750405\/","pname":"Haarlem","pexid":"http:\/\/sws.geonames.org\/2755003\/","mname":"Gemeente Haarlem","mexid":"http:\/\/sws.geonames.org\/2755002\/","prname":"Noord-Holland","prexid":"http:\/\/sws.geonames.org\/2749879\/"}
{"obid":"niod:2759233","dcid":"http:\/\/www.oorloginblik.nl\/lijst\/55674401","name":"Noord-Holland","lat":"52.5833","lng":"4.91667","exid":"http:\/\/sws.geonames.org\/2749879\/","cname":"Nederland","cexid":"http:\/\/sws.geonames.org\/2750405\/","mexid":"http:\/\/sws.geonames.org\/\/","prname":"Noord-Holland","prexid":"http:\/\/sws.geonames.org\/2749879\/"}
{"obid":"niod:2759235","dcid":"http:\/\/www.oorloginblik.nl\/lijst\/55674433","name":"Dam, Amsterdam, Nederland","lat":"52.3733","lng":"4.89302","exid":"bag\/363300000003186","cname":"Nederland","cexid":"http:\/\/sws.geonames.org\/2750405\/","pname":"Amsterdam","pexid":"http:\/\/sws.geonames.org\/2759794\/","mname":"Gemeente Amsterdam","mexid":"http:\/\/sws.geonames.org\/2759793\/","prname":"Noord-Holland","prexid":"http:\/\/sws.geonames.org\/2749879\/"}
{"obid":"niod:2759235","dcid":"http:\/\/www.oorloginblik.nl\/lijst\/55674433","name":"IJmuiden, Nederland","lat":"52.4603","lng":"4.61048","exid":"http:\/\/sws.geonames.org\/2753376\/","cname":"Nederland","cexid":"http:\/\/sws.geonames.org\/2750405\/","pname":"IJmuiden","pexid":"http:\/\/sws.geonames.org\/2753376\/","mname":"Gemeente Velsen","mexid":"http:\/\/sws.geonames.org\/2745675\/","prname":"Noord-Holland","prexid":"http:\/\/sws.geonames.org\/2749879\/"}
{"obid":"niod:2759239","dcid":"http:\/\/www.oorloginblik.nl\/lijst\/56592081","name":"Apeldoorn, Nederland","lat":"52.21","lng":"5.96944","exid":"http:\/\/sws.geonames.org\/2759706\/","cname":"Nederland","cexid":"http:\/\/sws.geonames.org\/2750405\/","pname":"Apeldoorn","pexid":"http:\/\/sws.geonames.org\/2759706\/","mname":"Gemeente Apeldoorn","mexid":"http:\/\/sws.geonames.org\/2759705\/","prname":"Gelderland","prexid":"http:\/\/sws.geonames.org\/2755634\/"}
{"obid":"niod:2759243","dcid":"http:\/\/www.oorloginblik.nl\/lijst\/55674764","name":"Yogyakarta","lat":"-7.78278","lng":"110.361","exid":"http:\/\/sws.geonames.org\/1621177\/","cname":"Indonesi\u00eb","cexid":"http:\/\/sws.geonames.org\/1643084\/","pname":"Yogyakarta","pexid":"http:\/\/sws.geonames.org\/1621177\/"}
{"obid":"niod:2759243","dcid":"http:\/\/www.oorloginblik.nl\/lijst\/55674764","name":"Rhenen, Utrecht","lat":"51.9592","lng":"5.56806","exid":"http:\/\/sws.geonames.org\/2748185\/","cname":"Nederland","cexid":"http:\/\/sws.geonames.org\/2750405\/","pname":"Rhenen","pexid":"http:\/\/sws.geonames.org\/2748185\/","mname":"Gemeente Rhenen","mexid":"http:\/\/sws.geonames.org\/2748184\/","prname":"Utrecht","prexid":"http:\/\/sws.geonames.org\/2745909\/"}
{"obid":"niod:2759243","dcid":"http:\/\/www.oorloginblik.nl\/lijst\/55674764","name":"Antwerpen, Belgi\u00eb","lat":"51.2199","lng":"4.40346","exid":"http:\/\/sws.geonames.org\/2803138\/","cname":"Belgi\u00eb","cexid":"http:\/\/sws.geonames.org\/2802361\/"}
{"obid":"niod:2759243","dcid":"http:\/\/www.oorloginblik.nl\/lijst\/55674764","name":"Haarlem","lat":"52.3808","lng":"4.63683","exid":"http:\/\/sws.geonames.org\/2755003\/","cname":"Nederland","cexid":"http:\/\/sws.geonames.org\/2750405\/","pname":"Haarlem","pexid":"http:\/\/sws.geonames.org\/2755003\/","mname":"Gemeente Haarlem","mexid":"http:\/\/sws.geonames.org\/2755002\/","prname":"Noord-Holland","prexid":"http:\/\/sws.geonames.org\/2749879\/"}
{"obid":"niod:2759244","dcid":"http:\/\/www.oorloginblik.nl\/lijst\/55674730","name":"Tomohon","lat":"1.31678","lng":"124.804","exid":"http:\/\/sws.geonames.org\/1623446\/","cname":"Indonesi\u00eb","cexid":"http:\/\/sws.geonames.org\/1643084\/"}
{"obid":"niod:2759244","dcid":"http:\/\/www.oorloginblik.nl\/lijst\/55674730","name":"Yogyakarta","lat":"-7.78278","lng":"110.361","exid":"http:\/\/sws.geonames.org\/1621177\/","cname":"Indonesi\u00eb","cexid":"http:\/\/sws.geonames.org\/1643084\/","pname":"Yogyakarta","pexid":"http:\/\/sws.geonames.org\/1621177\/"}
{"obid":"niod:2759244","dcid":"http:\/\/www.oorloginblik.nl\/lijst\/55674730","name":"Neurenberg, Duitsland","lat":"49.4542","lng":"11.0775","exid":"http:\/\/sws.geonames.org\/2861650\/","cname":"Duitsland","cexid":"http:\/\/sws.geonames.org\/2921044\/"}
{"obid":"niod:2759244","dcid":"http:\/\/www.oorloginblik.nl\/lijst\/55674730","name":"Rhenen, Utrecht","lat":"51.9592","lng":"5.56806","exid":"http:\/\/sws.geonames.org\/2748185\/","cname":"Nederland","cexid":"http:\/\/sws.geonames.org\/2750405\/","pname":"Rhenen","pexid":"http:\/\/sws.geonames.org\/2748185\/","mname":"Gemeente Rhenen","mexid":"http:\/\/sws.geonames.org\/2748184\/","prname":"Utrecht","prexid":"http:\/\/sws.geonames.org\/2745909\/"}
{"obid":"niod:2759244","dcid":"http:\/\/www.oorloginblik.nl\/lijst\/55674730","name":"Londen, Groot-Brittanni\u00eb","lat":"51.5085","lng":"-0.12574","exid":"http:\/\/sws.geonames.org\/2643743\/","cname":"United Kingdom","cexid":"http:\/\/sws.geonames.org\/2635167\/"}
{"obid":"niod:2759244","dcid":"http:\/\/www.oorloginblik.nl\/lijst\/55674730","name":"Den Helder, Noord-Holland","lat":"52.9599","lng":"4.75933","exid":"http:\/\/sws.geonames.org\/2757220\/","cname":"Nederland","cexid":"http:\/\/sws.geonames.org\/2750405\/","pname":"Den Helder","pexid":"http:\/\/sws.geonames.org\/2757220\/","mname":"Gemeente Den Helder","mexid":"http:\/\/sws.geonames.org\/2757219\/","prname":"Noord-Holland","prexid":"http:\/\/sws.geonames.org\/2749879\/"}
{"obid":"niod:2759244","dcid":"http:\/\/www.oorloginblik.nl\/lijst\/55674730","name":"Bloemendaal","lat":"52.4025","lng":"4.62222","exid":"http:\/\/sws.geonames.org\/2758804\/","cname":"Nederland","cexid":"http:\/\/sws.geonames.org\/2750405\/","mname":"Bloemendaal","mexid":"http:\/\/sws.geonames.org\/2758802\/","prname":"Noord-Holland","prexid":"http:\/\/sws.geonames.org\/2749879\/"}
{"obid":"niod:2759244","dcid":"http:\/\/www.oorloginblik.nl\/lijst\/55674730","name":"Haarlem","lat":"52.3808","lng":"4.63683","exid":"http:\/\/sws.geonames.org\/2755003\/","cname":"Nederland","cexid":"http:\/\/sws.geonames.org\/2750405\/","pname":"Haarlem","pexid":"http:\/\/sws.geonames.org\/2755003\/","mname":"Gemeente Haarlem","mexid":"http:\/\/sws.geonames.org\/2755002\/","prname":"Noord-Holland","prexid":"http:\/\/sws.geonames.org\/2749879\/"}
{"obid":"niod:2759245","dcid":"http:\/\/www.oorloginblik.nl\/lijst\/55674650","name":"Eijsden, Limburg","lat":"50.78","lng":"5.7177","exid":"http:\/\/sws.geonames.org\/2756283\/","cname":"Nederland","cexid":"http:\/\/sws.geonames.org\/2750405\/","pname":"Eijsden","pexid":"http:\/\/sws.geonames.org\/2756283\/","mname":"Eijsden-Margraten","mexid":"http:\/\/sws.geonames.org\/8260046\/","prname":"Limburg","prexid":"http:\/\/sws.geonames.org\/2751596\/"}
{"obid":"niod:2759245","dcid":"http:\/\/www.oorloginblik.nl\/lijst\/55674650","name":"Oisterwijk","lat":"51.5792","lng":"5.18889","exid":"http:\/\/sws.geonames.org\/2749680\/","cname":"Nederland","cexid":"http:\/\/sws.geonames.org\/2750405\/","pname":"Oisterwijk","pexid":"http:\/\/sws.geonames.org\/2749680\/","mname":"Gemeente Oisterwijk","mexid":"http:\/\/sws.geonames.org\/2749679\/","prname":"Noord-Brabant","prexid":"http:\/\/sws.geonames.org\/2749990\/"}
{"obid":"niod:2759247","dcid":"http:\/\/www.oorloginblik.nl\/lijst\/55674678","name":"Midden-Java","lat":"-7.5","lng":"110","exid":"http:\/\/sws.geonames.org\/1642669\/","cname":"Indonesi\u00eb","cexid":"http:\/\/sws.geonames.org\/1643084\/"}
{"obid":"niod:2759247","dcid":"http:\/\/www.oorloginblik.nl\/lijst\/55674678","name":"Zeeland, Nederland","lat":"51.6975","lng":"5.67639","exid":"http:\/\/sws.geonames.org\/2744014\/","cname":"Nederland","cexid":"http:\/\/sws.geonames.org\/2750405\/","pname":"Zeeland","pexid":"http:\/\/sws.geonames.org\/2744014\/","mname":"Gemeente Landerd","mexid":"http:\/\/sws.geonames.org\/6544292\/","prname":"Noord-Brabant","prexid":"http:\/\/sws.geonames.org\/2749990\/"}
{"obid":"niod:2759247","dcid":"http:\/\/www.oorloginblik.nl\/lijst\/55674678","name":"Gouda","lat":"52.0167","lng":"4.70833","exid":"http:\/\/sws.geonames.org\/2755420\/","cname":"Nederland","cexid":"http:\/\/sws.geonames.org\/2750405\/","pname":"Gouda","pexid":"http:\/\/sws.geonames.org\/2755420\/","mname":"Gemeente Gouda","mexid":"http:\/\/sws.geonames.org\/2755419\/","prname":"Zuid-Holland","prexid":"http:\/\/sws.geonames.org\/2743698\/"}
{"obid":"niod:2759247","dcid":"http:\/\/www.oorloginblik.nl\/lijst\/55674678","name":"Eijsden, Limburg","lat":"50.78","lng":"5.7177","exid":"http:\/\/sws.geonames.org\/2756283\/","cname":"Nederland","cexid":"http:\/\/sws.geonames.org\/2750405\/","pname":"Eijsden","pexid":"http:\/\/sws.geonames.org\/2756283\/","mname":"Eijsden-Margraten","mexid":"http:\/\/sws.geonames.org\/8260046\/","prname":"Limburg","prexid":"http:\/\/sws.geonames.org\/2751596\/"}
{"obid":"niod:2759247","dcid":"http:\/\/www.oorloginblik.nl\/lijst\/55674678","name":"Utrecht (stad), Nederland","lat":"52.0908","lng":"5.12222","exid":"http:\/\/sws.geonames.org\/2745912\/","cname":"Nederland","cexid":"http:\/\/sws.geonames.org\/2750405\/","mname":"Utrecht","mexid":"http:\/\/sws.geonames.org\/2745911\/","prname":"Utrecht","prexid":"http:\/\/sws.geonames.org\/2745909\/"}
{"obid":"niod:2759247","dcid":"http:\/\/www.oorloginblik.nl\/lijst\/55674678","name":"Haaren","lat":"51.6025","lng":"5.22222","exid":"http:\/\/sws.geonames.org\/2755009\/","cname":"Nederland","cexid":"http:\/\/sws.geonames.org\/2750405\/","pname":"Haaren","pexid":"http:\/\/sws.geonames.org\/2755009\/","mname":"Gemeente Haaren","mexid":"http:\/\/sws.geonames.org\/2755008\/","prname":"Noord-Brabant","prexid":"http:\/\/sws.geonames.org\/2749990\/"}
{"obid":"niod:2759247","dcid":"http:\/\/www.oorloginblik.nl\/lijst\/55674678","name":"Oisterwijk","lat":"51.5792","lng":"5.18889","exid":"http:\/\/sws.geonames.org\/2749680\/","cname":"Nederland","cexid":"http:\/\/sws.geonames.org\/2750405\/","pname":"Oisterwijk","pexid":"http:\/\/sws.geonames.org\/2749680\/","mname":"Gemeente Oisterwijk","mexid":"http:\/\/sws.geonames.org\/2749679\/","prname":"Noord-Brabant","prexid":"http:\/\/sws.geonames.org\/2749990\/"}
{"obid":"niod:2759248","dcid":"http:\/\/www.oorloginblik.nl\/lijst\/56594400","name":"Indonesi\u00eb","lat":"-5","lng":"120","exid":"http:\/\/sws.geonames.org\/1643084\/","cname":"Indonesi\u00eb","cexid":"http:\/\/sws.geonames.org\/1643084\/"}
{"obid":"niod:2759249","dcid":"http:\/\/www.oorloginblik.nl\/lijst\/56594378","name":"Indonesi\u00eb","lat":"-5","lng":"120","exid":"http:\/\/sws.geonames.org\/1643084\/","cname":"Indonesi\u00eb","cexid":"http:\/\/sws.geonames.org\/1643084\/"}
{"obid":"niod:2759250","dcid":"http:\/\/www.oorloginblik.nl\/lijst\/56594271","name":"Indonesi\u00eb","lat":"-5","lng":"120","exid":"http:\/\/sws.geonames.org\/1643084\/","cname":"Indonesi\u00eb","cexid":"http:\/\/sws.geonames.org\/1643084\/"}
{"obid":"niod:2759251","dcid":"http:\/\/www.oorloginblik.nl\/lijst\/56594133","name":" Usquert, Nederland","lat":"53.4025","lng":"6.61111","exid":"http:\/\/sws.geonames.org\/2745918\/","cname":"Nederland","cexid":"http:\/\/sws.geonames.org\/2750405\/","pname":"Usquert","pexid":"http:\/\/sws.geonames.org\/2745918\/","mname":"Gemeente Eemsmond","mexid":"http:\/\/sws.geonames.org\/6544278\/","prname":"Provincie Groningen","prexid":"http:\/\/sws.geonames.org\/2755249\/"}
{"obid":"niod:2759252","dcid":"http:\/\/www.oorloginblik.nl\/lijst\/56594218","name":" Ulrum, Nederland","lat":"53.3592","lng":"6.33333","exid":"http:\/\/sws.geonames.org\/2745944\/","cname":"Nederland","cexid":"http:\/\/sws.geonames.org\/2750405\/","pname":"Ulrum","pexid":"http:\/\/sws.geonames.org\/2745944\/","mname":"Gemeente De Marne","mexid":"http:\/\/sws.geonames.org\/6544229\/","prname":"Groningen","prexid":"http:\/\/sws.geonames.org\/2755249\/"}
{"obid":"niod:2759253","dcid":"http:\/\/www.oorloginblik.nl\/lijst\/56594090","name":"Grote Markt, Groningen, Nederland","lat":"53.2189","lng":"6.56628","exid":"bag\/14300010785143","cname":"Nederland","cexid":"http:\/\/sws.geonames.org\/2750405\/","pname":"Groningen","pexid":"http:\/\/sws.geonames.org\/2755251\/","mname":"Gemeente Groningen","mexid":"http:\/\/sws.geonames.org\/2755250\/","prname":"Groningen","prexid":"http:\/\/sws.geonames.org\/2755249\/"}
{"obid":"niod:2759253","dcid":"http:\/\/www.oorloginblik.nl\/lijst\/56594090","name":"Groningen, Nederland","lat":"53.2192","lng":"6.56667","exid":"http:\/\/sws.geonames.org\/2755251\/","cname":"Nederland","cexid":"http:\/\/sws.geonames.org\/2750405\/","pname":"Groningen","pexid":"http:\/\/sws.geonames.org\/2755251\/","mname":"Gemeente Groningen","mexid":"http:\/\/sws.geonames.org\/2755250\/","prname":"Groningen","prexid":"http:\/\/sws.geonames.org\/2755249\/"}
{"obid":"niod:2759254","dcid":"http:\/\/www.oorloginblik.nl\/lijst\/56593992","name":"Soerabaja, Indonesi\u00eb","lat":"-7.24917","lng":"112.751","exid":"http:\/\/sws.geonames.org\/1625822\/","cname":"Indonesi\u00eb","cexid":"http:\/\/sws.geonames.org\/1643084\/"}
{"obid":"niod:2759254","dcid":"http:\/\/www.oorloginblik.nl\/lijst\/56593992","name":"Groningen, Nederland","lat":"53.2192","lng":"6.56667","exid":"http:\/\/sws.geonames.org\/2755251\/","cname":"Nederland","cexid":"http:\/\/sws.geonames.org\/2750405\/","pname":"Groningen","pexid":"http:\/\/sws.geonames.org\/2755251\/","mname":"Gemeente Groningen","mexid":"http:\/\/sws.geonames.org\/2755250\/","prname":"Groningen","prexid":"http:\/\/sws.geonames.org\/2755249\/"}
{"obid":"niod:2759257","dcid":"http:\/\/www.oorloginblik.nl\/lijst\/56592509","name":"Groningen, Nederland","lat":"53.2192","lng":"6.56667","exid":"http:\/\/sws.geonames.org\/2755251\/","cname":"Nederland","cexid":"http:\/\/sws.geonames.org\/2750405\/","pname":"Groningen","pexid":"http:\/\/sws.geonames.org\/2755251\/","mname":"Gemeente Groningen","mexid":"http:\/\/sws.geonames.org\/2755250\/","prname":"Groningen","prexid":"http:\/\/sws.geonames.org\/2755249\/"}
{"obid":"niod:2759258","dcid":"http:\/\/www.oorloginblik.nl\/lijst\/56592222","name":"Den Haag, Nederland","lat":"52.0767","lng":"4.29861","exid":"http:\/\/sws.geonames.org\/2747373\/","cname":"Nederland","cexid":"http:\/\/sws.geonames.org\/2750405\/","pname":"The Hague","pexid":"http:\/\/sws.geonames.org\/2747373\/","mname":"Gemeente Den Haag","mexid":"http:\/\/sws.geonames.org\/2747372\/","prname":"Zuid-Holland","prexid":"http:\/\/sws.geonames.org\/2743698\/"}
{"obid":"niod:2759259","dcid":"http:\/\/www.oorloginblik.nl\/lijst\/56592118","name":"Guyotplein, Groningen, Nederland","lat":"53.2216","lng":"6.56092","exid":"bag\/14300010785150","cname":"Nederland","cexid":"http:\/\/sws.geonames.org\/2750405\/","pname":"Groningen","pexid":"http:\/\/sws.geonames.org\/2755251\/","mname":"Gemeente Groningen","mexid":"http:\/\/sws.geonames.org\/2755250\/","prname":"Groningen","prexid":"http:\/\/sws.geonames.org\/2755249\/"}
{"obid":"niod:2759260","dcid":"http:\/\/www.oorloginblik.nl\/lijst\/56594746","name":"Noorderstationsstraat, Groningen, Nederland","lat":"53.2294","lng":"6.55757","exid":"bag\/14300010785647","cname":"Nederland","cexid":"http:\/\/sws.geonames.org\/2750405\/","pname":"Groningen","pexid":"http:\/\/sws.geonames.org\/2755251\/","mname":"Gemeente Groningen","mexid":"http:\/\/sws.geonames.org\/2755250\/","prname":"Groningen","prexid":"http:\/\/sws.geonames.org\/2755249\/"}
{"obid":"niod:2759260","dcid":"http:\/\/www.oorloginblik.nl\/lijst\/56594746","name":"Oude Ebbingestraat, Groningen, Nederland","lat":"53.2208","lng":"6.56602","exid":"bag\/14300010785697","cname":"Nederland","cexid":"http:\/\/sws.geonames.org\/2750405\/","pname":"Groningen","pexid":"http:\/\/sws.geonames.org\/2755251\/","mname":"Gemeente Groningen","mexid":"http:\/\/sws.geonames.org\/2755250\/","prname":"Groningen","prexid":"http:\/\/sws.geonames.org\/2755249\/"}
{"obid":"niod:2759260","dcid":"http:\/\/www.oorloginblik.nl\/lijst\/56594746","name":"Stationsstraat, Groningen, Nederland","lat":"53.2146","lng":"6.56272","exid":"bag\/14300010785953","cname":"Nederland","cexid":"http:\/\/sws.geonames.org\/2750405\/","pname":"Groningen","pexid":"http:\/\/sws.geonames.org\/2755251\/","mname":"Gemeente Groningen","mexid":"http:\/\/sws.geonames.org\/2755250\/","prname":"Groningen","prexid":"http:\/\/sws.geonames.org\/2755249\/"}
{"obid":"niod:2759261","dcid":"http:\/\/www.oorloginblik.nl\/lijst\/56595249","name":" Zijldijk, Nederland","lat":"53.3942","lng":"6.75694","exid":"http:\/\/sws.geonames.org\/2743893\/","cname":"Nederland","cexid":"http:\/\/sws.geonames.org\/2750405\/","pname":"Zijldijk","pexid":"http:\/\/sws.geonames.org\/2743893\/","mname":"Gemeente Loppersum","mexid":"http:\/\/sws.geonames.org\/2751428\/","prname":"Provincie Groningen","prexid":"http:\/\/sws.geonames.org\/2755249\/"}
{"obid":"niod:2759261","dcid":"http:\/\/www.oorloginblik.nl\/lijst\/56595249","name":"Zuidlaren, Nederland","lat":"53.0942","lng":"6.68194","exid":"http:\/\/sws.geonames.org\/2743680\/","cname":"Nederland","cexid":"http:\/\/sws.geonames.org\/2750405\/","pname":"Zuidlaren","pexid":"http:\/\/sws.geonames.org\/2743680\/","mname":"Gemeente Tynaarlo","mexid":"http:\/\/sws.geonames.org\/6544282\/","prname":"Drenthe","prexid":"http:\/\/sws.geonames.org\/2756631\/"}
{"obid":"niod:2759262","dcid":"http:\/\/www.oorloginblik.nl\/lijst\/56594704","name":"Wadwerderweg, Usquert, Nederland","lat":"53.4021","lng":"6.59637","exid":"bag\/1651300000001442","cname":"Nederland","cexid":"http:\/\/sws.geonames.org\/2750405\/","pname":"Usquert","pexid":"http:\/\/sws.geonames.org\/2745918\/","mname":"Gemeente Eemsmond","mexid":"http:\/\/sws.geonames.org\/6544278\/","prname":"Provincie Groningen","prexid":"http:\/\/sws.geonames.org\/2755249\/"}
{"obid":"niod:2759262","dcid":"http:\/\/www.oorloginblik.nl\/lijst\/56594704","name":" Usquert, Nederland","lat":"53.4025","lng":"6.61111","exid":"http:\/\/sws.geonames.org\/2745918\/","cname":"Nederland","cexid":"http:\/\/sws.geonames.org\/2750405\/","pname":"Usquert","pexid":"http:\/\/sws.geonames.org\/2745918\/","mname":"Gemeente Eemsmond","mexid":"http:\/\/sws.geonames.org\/6544278\/","prname":"Provincie Groningen","prexid":"http:\/\/sws.geonames.org\/2755249\/"}
{"obid":"niod:2759263","dcid":"http:\/\/www.oorloginblik.nl\/lijst\/56594638","name":"Indonesi\u00eb","lat":"-5","lng":"120","exid":"http:\/\/sws.geonames.org\/1643084\/","cname":"Indonesi\u00eb","cexid":"http:\/\/sws.geonames.org\/1643084\/"}
{"obid":"niod:2759264","dcid":"http:\/\/www.oorloginblik.nl\/lijst\/56594461","name":"Indonesi\u00eb","lat":"-5","lng":"120","exid":"http:\/\/sws.geonames.org\/1643084\/","cname":"Indonesi\u00eb","cexid":"http:\/\/sws.geonames.org\/1643084\/"}
{"obid":"niod:2759265","dcid":"http:\/\/www.oorloginblik.nl\/lijst\/56594600","name":"Indonesi\u00eb","lat":"-5","lng":"120","exid":"http:\/\/sws.geonames.org\/1643084\/","cname":"Indonesi\u00eb","cexid":"http:\/\/sws.geonames.org\/1643084\/"}
{"obid":"niod:2759266","dcid":"http:\/\/www.oorloginblik.nl\/lijst\/56594553","name":"Indonesi\u00eb","lat":"-5","lng":"120","exid":"http:\/\/sws.geonames.org\/1643084\/","cname":"Indonesi\u00eb","cexid":"http:\/\/sws.geonames.org\/1643084\/"}
{"obid":"niod:2759267","dcid":"http:\/\/www.oorloginblik.nl\/lijst\/56594506","name":"Indonesi\u00eb","lat":"-5","lng":"120","exid":"http:\/\/sws.geonames.org\/1643084\/","cname":"Indonesi\u00eb","cexid":"http:\/\/sws.geonames.org\/1643084\/"}
{"obid":"niod:2759268","dcid":"http:\/\/www.oorloginblik.nl\/lijst\/56598022","name":"Rotterdam, Nederland","lat":"51.9225","lng":"4.47917","exid":"http:\/\/sws.geonames.org\/2747891\/","cname":"Nederland","cexid":"http:\/\/sws.geonames.org\/2750405\/","pname":"Rotterdam","pexid":"http:\/\/sws.geonames.org\/2747891\/","mname":"Gemeente Rotterdam","mexid":"http:\/\/sws.geonames.org\/2747890\/","prname":"Zuid-Holland","prexid":"http:\/\/sws.geonames.org\/2743698\/"}
{"obid":"niod:2759268","dcid":"http:\/\/www.oorloginblik.nl\/lijst\/56598022","name":"Groningen, Nederland","lat":"53.2192","lng":"6.56667","exid":"http:\/\/sws.geonames.org\/2755251\/","cname":"Nederland","cexid":"http:\/\/sws.geonames.org\/2750405\/","pname":"Groningen","pexid":"http:\/\/sws.geonames.org\/2755251\/","mname":"Gemeente Groningen","mexid":"http:\/\/sws.geonames.org\/2755250\/","prname":"Groningen","prexid":"http:\/\/sws.geonames.org\/2755249\/"}
{"obid":"niod:2759269","dcid":"http:\/\/www.oorloginblik.nl\/lijst\/56598003","name":"Groningen, Nederland","lat":"53.2192","lng":"6.56667","exid":"http:\/\/sws.geonames.org\/2755251\/","cname":"Nederland","cexid":"http:\/\/sws.geonames.org\/2750405\/","pname":"Groningen","pexid":"http:\/\/sws.geonames.org\/2755251\/","mname":"Gemeente Groningen","mexid":"http:\/\/sws.geonames.org\/2755250\/","prname":"Groningen","prexid":"http:\/\/sws.geonames.org\/2755249\/"}
{"obid":"niod:2759269","dcid":"http:\/\/www.oorloginblik.nl\/lijst\/56598003","name":"Delfzijl, Nederland","lat":"53.33","lng":"6.91806","exid":"http:\/\/sws.geonames.org\/2757340\/","cname":"Nederland","cexid":"http:\/\/sws.geonames.org\/2750405\/","pname":"Delfzijl","pexid":"http:\/\/sws.geonames.org\/2757340\/","mname":"Gemeente Delfzijl","mexid":"http:\/\/sws.geonames.org\/2757339\/","prname":"Groningen","prexid":"http:\/\/sws.geonames.org\/2755249\/"}
{"obid":"niod:2759270","dcid":"http:\/\/www.oorloginblik.nl\/lijst\/56597633","name":"Groningen, Nederland","lat":"53.2192","lng":"6.56667","exid":"http:\/\/sws.geonames.org\/2755251\/","cname":"Nederland","cexid":"http:\/\/sws.geonames.org\/2750405\/","pname":"Groningen","pexid":"http:\/\/sws.geonames.org\/2755251\/","mname":"Gemeente Groningen","mexid":"http:\/\/sws.geonames.org\/2755250\/","prname":"Groningen","prexid":"http:\/\/sws.geonames.org\/2755249\/"}
{"obid":"niod:2759271","dcid":"http:\/\/www.oorloginblik.nl\/lijst\/56597899","name":"Stationsplein, Groningen, Nederland","lat":"53.2116","lng":"6.56444","exid":"bag\/14300010785952","cname":"Nederland","cexid":"http:\/\/sws.geonames.org\/2750405\/","pname":"Groningen","pexid":"http:\/\/sws.geonames.org\/2755251\/","mname":"Gemeente Groningen","mexid":"http:\/\/sws.geonames.org\/2755250\/","prname":"Groningen","prexid":"http:\/\/sws.geonames.org\/2755249\/"}
{"obid":"niod:2759271","dcid":"http:\/\/www.oorloginblik.nl\/lijst\/56597899","name":"Delfzijl, Nederland","lat":"53.33","lng":"6.91806","exid":"http:\/\/sws.geonames.org\/2757340\/","cname":"Nederland","cexid":"http:\/\/sws.geonames.org\/2750405\/","pname":"Delfzijl","pexid":"http:\/\/sws.geonames.org\/2757340\/","mname":"Gemeente Delfzijl","mexid":"http:\/\/sws.geonames.org\/2757339\/","prname":"Groningen","prexid":"http:\/\/sws.geonames.org\/2755249\/"}
{"obid":"niod:2759272","dcid":"http:\/\/www.oorloginblik.nl\/lijst\/56596760","name":"Verlengde Hereweg, Groningen, Nederland","lat":"53.199","lng":"6.57949","exid":"bag\/14300010786108","cname":"Nederland","cexid":"http:\/\/sws.geonames.org\/2750405\/","pname":"Groningen","pexid":"http:\/\/sws.geonames.org\/2755251\/","mname":"Gemeente Groningen","mexid":"http:\/\/sws.geonames.org\/2755250\/","prname":"Groningen","prexid":"http:\/\/sws.geonames.org\/2755249\/"}
{"obid":"niod:2759272","dcid":"http:\/\/www.oorloginblik.nl\/lijst\/56596760","name":"Groningen, Nederland","lat":"53.2192","lng":"6.56667","exid":"http:\/\/sws.geonames.org\/2755251\/","cname":"Nederland","cexid":"http:\/\/sws.geonames.org\/2750405\/","pname":"Groningen","pexid":"http:\/\/sws.geonames.org\/2755251\/","mname":"Gemeente Groningen","mexid":"http:\/\/sws.geonames.org\/2755250\/","prname":"Groningen","prexid":"http:\/\/sws.geonames.org\/2755249\/"}
{"obid":"niod:2759273","dcid":"http:\/\/www.oorloginblik.nl\/lijst\/56596739","name":"Grote Markt, Groningen, Nederland","lat":"53.2189","lng":"6.56628","exid":"bag\/14300010785143","cname":"Nederland","cexid":"http:\/\/sws.geonames.org\/2750405\/","pname":"Groningen","pexid":"http:\/\/sws.geonames.org\/2755251\/","mname":"Gemeente Groningen","mexid":"http:\/\/sws.geonames.org\/2755250\/","prname":"Groningen","prexid":"http:\/\/sws.geonames.org\/2755249\/"}
{"obid":"niod:2759273","dcid":"http:\/\/www.oorloginblik.nl\/lijst\/56596739","name":"Hereweg, Groningen, Nederland","lat":"53.2065","lng":"6.57359","exid":"bag\/14300010785214","cname":"Nederland","cexid":"http:\/\/sws.geonames.org\/2750405\/","pname":"Groningen","pexid":"http:\/\/sws.geonames.org\/2755251\/","mname":"Gemeente Groningen","mexid":"http:\/\/sws.geonames.org\/2755250\/","prname":"Groningen","prexid":"http:\/\/sws.geonames.org\/2755249\/"}
{"obid":"niod:2759274","dcid":"http:\/\/www.oorloginblik.nl\/lijst\/56596531","name":"Hereweg, Groningen, Nederland","lat":"53.2065","lng":"6.57359","exid":"bag\/14300010785214","cname":"Nederland","cexid":"http:\/\/sws.geonames.org\/2750405\/","pname":"Groningen","pexid":"http:\/\/sws.geonames.org\/2755251\/","mname":"Gemeente Groningen","mexid":"http:\/\/sws.geonames.org\/2755250\/","prname":"Groningen","prexid":"http:\/\/sws.geonames.org\/2755249\/"}
{"obid":"niod:2759274","dcid":"http:\/\/www.oorloginblik.nl\/lijst\/56596531","name":"Alkmaar, Nederland","lat":"52.6317","lng":"4.74861","exid":"http:\/\/sws.geonames.org\/2759899\/","cname":"Nederland","cexid":"http:\/\/sws.geonames.org\/2750405\/","pname":"Alkmaar","pexid":"http:\/\/sws.geonames.org\/2759899\/","mname":"Gemeente Alkmaar","mexid":"http:\/\/sws.geonames.org\/2759898\/","prname":"Noord-Holland","prexid":"http:\/\/sws.geonames.org\/2749879\/"}
{"obid":"niod:2759275","dcid":"http:\/\/www.oorloginblik.nl\/lijst\/56596555","name":"Apeldoorn, Nederland","lat":"52.21","lng":"5.96944","exid":"http:\/\/sws.geonames.org\/2759706\/","cname":"Nederland","cexid":"http:\/\/sws.geonames.org\/2750405\/","pname":"Apeldoorn","pexid":"http:\/\/sws.geonames.org\/2759706\/","mname":"Gemeente Apeldoorn","mexid":"http:\/\/sws.geonames.org\/2759705\/","prname":"Gelderland","prexid":"http:\/\/sws.geonames.org\/2755634\/"}
{"obid":"niod:2759276","dcid":"http:\/\/www.oorloginblik.nl\/lijst\/56596066","name":" Warffum, Nederland","lat":"53.3925","lng":"6.55833","exid":"http:\/\/sws.geonames.org\/2745024\/","cname":"Nederland","cexid":"http:\/\/sws.geonames.org\/2750405\/","pname":"Warffum","pexid":"http:\/\/sws.geonames.org\/2745024\/","mname":"Gemeente Eemsmond","mexid":"http:\/\/sws.geonames.org\/6544278\/","prname":"Groningen","prexid":"http:\/\/sws.geonames.org\/2755249\/"}
{"obid":"niod:2759277","dcid":"http:\/\/www.oorloginblik.nl\/lijst\/56596089","name":" Warffum, Nederland","lat":"53.3925","lng":"6.55833","exid":"http:\/\/sws.geonames.org\/2745024\/","cname":"Nederland","cexid":"http:\/\/sws.geonames.org\/2750405\/","pname":"Warffum","pexid":"http:\/\/sws.geonames.org\/2745024\/","mname":"Gemeente Eemsmond","mexid":"http:\/\/sws.geonames.org\/6544278\/","prname":"Groningen","prexid":"http:\/\/sws.geonames.org\/2755249\/"}
{"obid":"niod:2759279","dcid":"http:\/\/www.oorloginblik.nl\/lijst\/56595364","name":"Dilgtweg, Haren, Nederland","lat":"53.1841","lng":"6.59892","exid":"bag\/17300000000162","cname":"Nederland","cexid":"http:\/\/sws.geonames.org\/2750405\/","pname":"Haren","pexid":"http:\/\/sws.geonames.org\/2754841\/","mname":"Gemeente Haren","mexid":"http:\/\/sws.geonames.org\/2754840\/","prname":"Groningen","prexid":"http:\/\/sws.geonames.org\/2755249\/"}
{"obid":"niod:2759280","dcid":"http:\/\/www.oorloginblik.nl\/lijst\/56595832","name":"Hoogkerk, Nederland","lat":"53.2108","lng":"6.50139","exid":"http:\/\/sws.geonames.org\/2753688\/","cname":"Nederland","cexid":"http:\/\/sws.geonames.org\/2750405\/","pname":"Hoogkerk","pexid":"http:\/\/sws.geonames.org\/2753688\/","mname":"Groningen","mexid":"http:\/\/sws.geonames.org\/2755250\/","prname":"Groningen","prexid":"http:\/\/sws.geonames.org\/2755249\/"}
{"obid":"niod:2759281","dcid":"http:\/\/www.oorloginblik.nl\/lijst\/56604121","name":"Groningen, Nederland","lat":"53.2192","lng":"6.56667","exid":"http:\/\/sws.geonames.org\/2755251\/","cname":"Nederland","cexid":"http:\/\/sws.geonames.org\/2750405\/","pname":"Groningen","pexid":"http:\/\/sws.geonames.org\/2755251\/","mname":"Gemeente Groningen","mexid":"http:\/\/sws.geonames.org\/2755250\/","prname":"Groningen","prexid":"http:\/\/sws.geonames.org\/2755249\/"}
{"obid":"niod:2759282","dcid":"http:\/\/www.oorloginblik.nl\/lijst\/56604106","name":"Herestraat , Groningen, Nederland","lat":"53.2153","lng":"6.56865","exid":"bag\/14300010785213","cname":"Nederland","cexid":"http:\/\/sws.geonames.org\/2750405\/","pname":"Groningen","pexid":"http:\/\/sws.geonames.org\/2755251\/","mname":"Gemeente Groningen","mexid":"http:\/\/sws.geonames.org\/2755250\/","prname":"Groningen","prexid":"http:\/\/sws.geonames.org\/2755249\/"}
{"obid":"niod:2759282","dcid":"http:\/\/www.oorloginblik.nl\/lijst\/56604106","name":"Kleine Pelsterstraat, Groningen, Nederland","lat":"53.2159","lng":"6.56803","exid":"bag\/14300010785396","cname":"Nederland","cexid":"http:\/\/sws.geonames.org\/2750405\/","pname":"Groningen","pexid":"http:\/\/sws.geonames.org\/2755251\/","mname":"Gemeente Groningen","mexid":"http:\/\/sws.geonames.org\/2755250\/","prname":"Groningen","prexid":"http:\/\/sws.geonames.org\/2755249\/"}
{"obid":"niod:2759283","dcid":"http:\/\/www.oorloginblik.nl\/lijst\/56602483","name":" Midden-Drenthe, Nederland","lat":"52.8672","lng":"6.5384","exid":"http:\/\/sws.geonames.org\/6544297\/","cname":"Nederland","cexid":"http:\/\/sws.geonames.org\/2750405\/","mname":"Midden-Drenthe","mexid":"http:\/\/sws.geonames.org\/6544297\/","prname":"Drenthe","prexid":"http:\/\/sws.geonames.org\/2756631\/"}
{"obid":"niod:2759284","dcid":"http:\/\/www.oorloginblik.nl\/lijst\/56600905","name":"Leeuwarden, Nederland","lat":"53.2014","lng":"5.80859","exid":"http:\/\/sws.geonames.org\/2751792\/","cname":"Nederland","cexid":"http:\/\/sws.geonames.org\/2750405\/","pname":"Leeuwarden","pexid":"http:\/\/sws.geonames.org\/2751792\/","mname":"Leeuwarden","mexid":"http:\/\/sws.geonames.org\/2751791\/","prname":"Friesland","prexid":"http:\/\/sws.geonames.org\/2755812\/"}
{"obid":"niod:2759285","dcid":"http:\/\/www.oorloginblik.nl\/lijst\/56600463","name":"Groningen, Nederland","lat":"53.2192","lng":"6.56667","exid":"http:\/\/sws.geonames.org\/2755251\/","cname":"Nederland","cexid":"http:\/\/sws.geonames.org\/2750405\/","pname":"Groningen","pexid":"http:\/\/sws.geonames.org\/2755251\/","mname":"Gemeente Groningen","mexid":"http:\/\/sws.geonames.org\/2755250\/","prname":"Groningen","prexid":"http:\/\/sws.geonames.org\/2755249\/"}
{"obid":"niod:2759285","dcid":"http:\/\/www.oorloginblik.nl\/lijst\/56600463","name":"Delfzijl, Nederland","lat":"53.33","lng":"6.91806","exid":"http:\/\/sws.geonames.org\/2757340\/","cname":"Nederland","cexid":"http:\/\/sws.geonames.org\/2750405\/","pname":"Delfzijl","pexid":"http:\/\/sws.geonames.org\/2757340\/","mname":"Gemeente Delfzijl","mexid":"http:\/\/sws.geonames.org\/2757339\/","prname":"Groningen","prexid":"http:\/\/sws.geonames.org\/2755249\/"}
{"obid":"niod:2759286","dcid":"http:\/\/www.oorloginblik.nl\/lijst\/56598133","name":"Verlengde Hereweg, Groningen, Nederland","lat":"53.199","lng":"6.57949","exid":"bag\/14300010786108","cname":"Nederland","cexid":"http:\/\/sws.geonames.org\/2750405\/","pname":"Groningen","pexid":"http:\/\/sws.geonames.org\/2755251\/","mname":"Gemeente Groningen","mexid":"http:\/\/sws.geonames.org\/2755250\/","prname":"Groningen","prexid":"http:\/\/sws.geonames.org\/2755249\/"}
{"obid":"niod:2759288","dcid":"http:\/\/www.oorloginblik.nl\/lijst\/56599411","name":"Groningen, Nederland","lat":"53.2192","lng":"6.56667","exid":"http:\/\/sws.geonames.org\/2755251\/","cname":"Nederland","cexid":"http:\/\/sws.geonames.org\/2750405\/","pname":"Groningen","pexid":"http:\/\/sws.geonames.org\/2755251\/","mname":"Gemeente Groningen","mexid":"http:\/\/sws.geonames.org\/2755250\/","prname":"Groningen","prexid":"http:\/\/sws.geonames.org\/2755249\/"}
{"obid":"niod:2759289","dcid":"http:\/\/www.oorloginblik.nl\/lijst\/56616801","name":"Cincinnati","lat":"39.162","lng":"-84.4569","exid":"http:\/\/sws.geonames.org\/4508722\/","cname":"Verenigde Staten","cexid":"http:\/\/sws.geonames.org\/6252001\/","pname":"Cincinnati","pexid":"http:\/\/sws.geonames.org\/4508722\/"}
{"obid":"niod:2759289","dcid":"http:\/\/www.oorloginblik.nl\/lijst\/56616801","name":"Venlo, Limburg","lat":"51.37","lng":"6.16806","exid":"http:\/\/sws.geonames.org\/2745641\/","cname":"Nederland","cexid":"http:\/\/sws.geonames.org\/2750405\/","pname":"Venlo","pexid":"http:\/\/sws.geonames.org\/2745641\/","mname":"Gemeente Venlo","mexid":"http:\/\/sws.geonames.org\/2745640\/","prname":"Limburg","prexid":"http:\/\/sws.geonames.org\/2751596\/"}
{"obid":"niod:2759289","dcid":"http:\/\/www.oorloginblik.nl\/lijst\/56616801","name":"Wieringermeer, Noord-Holland","lat":"52.8331","lng":"4.99645","exid":"http:\/\/sws.geonames.org\/2744536\/","cname":"Nederland","cexid":"http:\/\/sws.geonames.org\/2750405\/","mexid":"http:\/\/sws.geonames.org\/\/","prname":"Noord-Holland","prexid":"http:\/\/sws.geonames.org\/2749879\/"}
{"obid":"niod:2759289","dcid":"http:\/\/www.oorloginblik.nl\/lijst\/56616801","name":"Hellendoorn, Overijssel","lat":"52.3883","lng":"6.45139","exid":"http:\/\/sws.geonames.org\/2754457\/","cname":"Nederland","cexid":"http:\/\/sws.geonames.org\/2750405\/","pname":"Hellendoorn","pexid":"http:\/\/sws.geonames.org\/2754457\/","mname":"Gemeente Hellendoorn","mexid":"http:\/\/sws.geonames.org\/2754456\/","prname":"Overijssel","prexid":"http:\/\/sws.geonames.org\/2748838\/"}
{"obid":"niod:2759289","dcid":"http:\/\/www.oorloginblik.nl\/lijst\/56616801","name":"Appingedam","lat":"53.3217","lng":"6.85833","exid":"http:\/\/sws.geonames.org\/2759687\/","cname":"Nederland","cexid":"http:\/\/sws.geonames.org\/2750405\/","pname":"Appingedam","pexid":"http:\/\/sws.geonames.org\/2759687\/","mname":"Gemeente Appingedam","mexid":"http:\/\/sws.geonames.org\/2759686\/","prname":"Groningen","prexid":"http:\/\/sws.geonames.org\/2755249\/"}
{"obid":"niod:2759289","dcid":"http:\/\/www.oorloginblik.nl\/lijst\/56616801","name":"Norg","lat":"53.0667","lng":"6.45833","exid":"http:\/\/sws.geonames.org\/2749796\/","cname":"Nederland","cexid":"http:\/\/sws.geonames.org\/2750405\/","pname":"Norg","pexid":"http:\/\/sws.geonames.org\/2749796\/","mname":"Gemeente Noordenveld","mexid":"http:\/\/sws.geonames.org\/6544287\/","prname":"Drenthe","prexid":"http:\/\/sws.geonames.org\/2756631\/"}
{"obid":"niod:2759290","dcid":"http:\/\/www.oorloginblik.nl\/lijst\/56616386","name":"Veldhoven, Noord-Brabant","lat":"51.4183","lng":"5.40278","exid":"http:\/\/sws.geonames.org\/2745706\/","cname":"Nederland","cexid":"http:\/\/sws.geonames.org\/2750405\/","pname":"Veldhoven","pexid":"http:\/\/sws.geonames.org\/2745706\/","mname":"Gemeente Veldhoven","mexid":"http:\/\/sws.geonames.org\/2745704\/","prname":"Noord-Brabant","prexid":"http:\/\/sws.geonames.org\/2749990\/"}
{"obid":"niod:2759292","dcid":"http:\/\/www.oorloginblik.nl\/lijst\/56614860","name":"Goeree-Overflakkee","lat":"51.8167","lng":"3.96667","exid":"http:\/\/sws.geonames.org\/2755484\/","cname":"Nederland","cexid":"http:\/\/sws.geonames.org\/2750405\/","mname":"NL.11.0511","mexid":"http:\/\/sws.geonames.org\/\/","prname":"Zuid-Holland","prexid":"http:\/\/sws.geonames.org\/2743698\/"}
{"obid":"niod:2759294","dcid":"http:\/\/www.oorloginblik.nl\/lijst\/56613614","name":"Duitsland","lat":"51.5","lng":"10.5","exid":"http:\/\/sws.geonames.org\/2921044\/","cname":"Duitsland","cexid":"http:\/\/sws.geonames.org\/2921044\/"}
{"obid":"niod:2759295","dcid":"http:\/\/www.oorloginblik.nl\/lijst\/56610504","name":"Saarbr\u00fccken, Duitsland","lat":"49.2354","lng":"6.98165","exid":"http:\/\/sws.geonames.org\/2842647\/","cname":"Duitsland","cexid":"http:\/\/sws.geonames.org\/2921044\/"}
{"obid":"niod:2759296","dcid":"http:\/\/www.oorloginblik.nl\/lijst\/56605560","name":"Groningen","lat":"53.2192","lng":"6.56667","exid":"http:\/\/sws.geonames.org\/2755251\/","cname":"Nederland","cexid":"http:\/\/sws.geonames.org\/2750405\/","pname":"Groningen","pexid":"http:\/\/sws.geonames.org\/2755251\/","mname":"Gemeente Groningen","mexid":"http:\/\/sws.geonames.org\/2755250\/","prname":"Groningen","prexid":"http:\/\/sws.geonames.org\/2755249\/"}
{"obid":"niod:2759300","dcid":"http:\/\/www.oorloginblik.nl\/lijst\/56604487","name":"M\u00fcnchen, Duitsland","lat":"48.1374","lng":"11.5755","exid":"http:\/\/sws.geonames.org\/2867714\/","cname":"Duitsland","cexid":"http:\/\/sws.geonames.org\/2921044\/"}
{"obid":"niod:2759300","dcid":"http:\/\/www.oorloginblik.nl\/lijst\/56604487","name":"Leipzig, Duitsland","lat":"51.3396","lng":"12.3713","exid":"http:\/\/sws.geonames.org\/2879139\/","cname":"Duitsland","cexid":"http:\/\/sws.geonames.org\/2921044\/"}
{"obid":"niod:2759301","dcid":"http:\/\/www.oorloginblik.nl\/lijst\/56604161","name":"Groningen","lat":"53.2192","lng":"6.56667","exid":"http:\/\/sws.geonames.org\/2755251\/","cname":"Nederland","cexid":"http:\/\/sws.geonames.org\/2750405\/","pname":"Groningen","pexid":"http:\/\/sws.geonames.org\/2755251\/","mname":"Gemeente Groningen","mexid":"http:\/\/sws.geonames.org\/2755250\/","prname":"Groningen","prexid":"http:\/\/sws.geonames.org\/2755249\/"}
{"obid":"niod:2759302","dcid":"http:\/\/www.oorloginblik.nl\/lijst\/56616845","name":"Cincinnati","lat":"39.162","lng":"-84.4569","exid":"http:\/\/sws.geonames.org\/4508722\/","cname":"Verenigde Staten","cexid":"http:\/\/sws.geonames.org\/6252001\/","pname":"Cincinnati","pexid":"http:\/\/sws.geonames.org\/4508722\/"}
{"obid":"niod:2759302","dcid":"http:\/\/www.oorloginblik.nl\/lijst\/56616845","name":"Venlo, Limburg","lat":"51.37","lng":"6.16806","exid":"http:\/\/sws.geonames.org\/2745641\/","cname":"Nederland","cexid":"http:\/\/sws.geonames.org\/2750405\/","pname":"Venlo","pexid":"http:\/\/sws.geonames.org\/2745641\/","mname":"Gemeente Venlo","mexid":"http:\/\/sws.geonames.org\/2745640\/","prname":"Limburg","prexid":"http:\/\/sws.geonames.org\/2751596\/"}
{"obid":"niod:2759302","dcid":"http:\/\/www.oorloginblik.nl\/lijst\/56616845","name":"Hellendoorn, Overijssel","lat":"52.3883","lng":"6.45139","exid":"http:\/\/sws.geonames.org\/2754457\/","cname":"Nederland","cexid":"http:\/\/sws.geonames.org\/2750405\/","pname":"Hellendoorn","pexid":"http:\/\/sws.geonames.org\/2754457\/","mname":"Gemeente Hellendoorn","mexid":"http:\/\/sws.geonames.org\/2754456\/","prname":"Overijssel","prexid":"http:\/\/sws.geonames.org\/2748838\/"}
{"obid":"niod:2759302","dcid":"http:\/\/www.oorloginblik.nl\/lijst\/56616845","name":"Westkapelle, Zeeland","lat":"51.5292","lng":"3.44028","exid":"http:\/\/sws.geonames.org\/2744642\/","cname":"Nederland","cexid":"http:\/\/sws.geonames.org\/2750405\/","pname":"Westkapelle","pexid":"http:\/\/sws.geonames.org\/2744642\/","mname":"Gemeente Veere","mexid":"http:\/\/sws.geonames.org\/2745738\/","prname":"Zeeland","prexid":"http:\/\/sws.geonames.org\/2744011\/"}
{"obid":"niod:2759302","dcid":"http:\/\/www.oorloginblik.nl\/lijst\/56616845","name":"Norg","lat":"53.0667","lng":"6.45833","exid":"http:\/\/sws.geonames.org\/2749796\/","cname":"Nederland","cexid":"http:\/\/sws.geonames.org\/2750405\/","pname":"Norg","pexid":"http:\/\/sws.geonames.org\/2749796\/","mname":"Gemeente Noordenveld","mexid":"http:\/\/sws.geonames.org\/6544287\/","prname":"Drenthe","prexid":"http:\/\/sws.geonames.org\/2756631\/"}
{"obid":"niod:2759303","dcid":"http:\/\/www.oorloginblik.nl\/lijst\/56617052","name":"Hellendoorn, Overijssel","lat":"52.3883","lng":"6.45139","exid":"http:\/\/sws.geonames.org\/2754457\/","cname":"Nederland","cexid":"http:\/\/sws.geonames.org\/2750405\/","pname":"Hellendoorn","pexid":"http:\/\/sws.geonames.org\/2754457\/","mname":"Gemeente Hellendoorn","mexid":"http:\/\/sws.geonames.org\/2754456\/","prname":"Overijssel","prexid":"http:\/\/sws.geonames.org\/2748838\/"}
{"obid":"niod:2759303","dcid":"http:\/\/www.oorloginblik.nl\/lijst\/56617052","name":"Norg","lat":"53.0667","lng":"6.45833","exid":"http:\/\/sws.geonames.org\/2749796\/","cname":"Nederland","cexid":"http:\/\/sws.geonames.org\/2750405\/","pname":"Norg","pexid":"http:\/\/sws.geonames.org\/2749796\/","mname":"Gemeente Noordenveld","mexid":"http:\/\/sws.geonames.org\/6544287\/","prname":"Drenthe","prexid":"http:\/\/sws.geonames.org\/2756631\/"}
{"obid":"niod:2759304","dcid":"http:\/\/www.oorloginblik.nl\/lijst\/56617069","name":"Soesterberg","lat":"52.1183","lng":"5.28611","exid":"http:\/\/sws.geonames.org\/2747030\/","cname":"Nederland","cexid":"http:\/\/sws.geonames.org\/2750405\/","pname":"Soesterberg","pexid":"http:\/\/sws.geonames.org\/2747030\/","mname":"Gemeente Soest","mexid":"http:\/\/sws.geonames.org\/2747033\/","prname":"Utrecht","prexid":"http:\/\/sws.geonames.org\/2745909\/"}
{"obid":"niod:2759305","dcid":"http:\/\/www.oorloginblik.nl\/lijst\/56617041","name":"Rhenen, Nederland","lat":"51.9592","lng":"5.56806","exid":"http:\/\/sws.geonames.org\/2748185\/","cname":"Nederland","cexid":"http:\/\/sws.geonames.org\/2750405\/","pname":"Rhenen","pexid":"http:\/\/sws.geonames.org\/2748185\/","mname":"Gemeente Rhenen","mexid":"http:\/\/sws.geonames.org\/2748184\/","prname":"Utrecht","prexid":"http:\/\/sws.geonames.org\/2745909\/"}
{"obid":"niod:2759305","dcid":"http:\/\/www.oorloginblik.nl\/lijst\/56617041","name":"Ommen","lat":"52.5208","lng":"6.42083","exid":"http:\/\/sws.geonames.org\/2749613\/","cname":"Nederland","cexid":"http:\/\/sws.geonames.org\/2750405\/","pname":"Ommen","pexid":"http:\/\/sws.geonames.org\/2749613\/","mname":"Ommen","mexid":"http:\/\/sws.geonames.org\/2749611\/","prname":"Overijssel","prexid":"http:\/\/sws.geonames.org\/2748838\/"}
{"obid":"niod:2759307","dcid":"http:\/\/www.oorloginblik.nl\/lijst\/56620926","name":"Lampersariekamp","lat":"-7.00553","lng":"110.436","exid":"http:\/\/sws.geonames.org\/11184923\/","cname":"Indonesi\u00eb","cexid":"http:\/\/sws.geonames.org\/1643084\/"}
{"obid":"niod:2759307","dcid":"http:\/\/www.oorloginblik.nl\/lijst\/56620926","name":"Saarland, Duitsland","lat":"49.4047","lng":"6.96083","exid":"http:\/\/sws.geonames.org\/2842635\/","cname":"Duitsland","cexid":"http:\/\/sws.geonames.org\/2921044\/"}
{"obid":"niod:2759310","dcid":"http:\/\/www.oorloginblik.nl\/lijst\/56620913","name":"Middelharnis","lat":"51.7575","lng":"4.16528","exid":"http:\/\/sws.geonames.org\/2750884\/","cname":"Nederland","cexid":"http:\/\/sws.geonames.org\/2750405\/","pname":"Middelharnis","pexid":"http:\/\/sws.geonames.org\/2750884\/","mname":"Gemeente Goeree-Overflakkee","mexid":"http:\/\/sws.geonames.org\/8549513\/","prname":"Zuid-Holland","prexid":"http:\/\/sws.geonames.org\/2743698\/"}
{"obid":"niod:2759310","dcid":"http:\/\/www.oorloginblik.nl\/lijst\/56620913","name":"Leeuwarden","lat":"53.2014","lng":"5.80859","exid":"http:\/\/sws.geonames.org\/2751792\/","cname":"Nederland","cexid":"http:\/\/sws.geonames.org\/2750405\/","mname":"Leeuwarden","mexid":"http:\/\/sws.geonames.org\/2751791\/","prname":"Friesland","prexid":"http:\/\/sws.geonames.org\/2755812\/"}
{"obid":"niod:2759313","dcid":"http:\/\/www.oorloginblik.nl\/lijst\/56620806","name":"Cincinnati","lat":"39.162","lng":"-84.4569","exid":"http:\/\/sws.geonames.org\/4508722\/","cname":"Verenigde Staten","cexid":"http:\/\/sws.geonames.org\/6252001\/","pname":"Cincinnati","pexid":"http:\/\/sws.geonames.org\/4508722\/"}
{"obid":"niod:2759313","dcid":"http:\/\/www.oorloginblik.nl\/lijst\/56620806","name":"Venlo, Limburg","lat":"51.37","lng":"6.16806","exid":"http:\/\/sws.geonames.org\/2745641\/","cname":"Nederland","cexid":"http:\/\/sws.geonames.org\/2750405\/","pname":"Venlo","pexid":"http:\/\/sws.geonames.org\/2745641\/","mname":"Gemeente Venlo","mexid":"http:\/\/sws.geonames.org\/2745640\/","prname":"Limburg","prexid":"http:\/\/sws.geonames.org\/2751596\/"}
{"obid":"niod:2759313","dcid":"http:\/\/www.oorloginblik.nl\/lijst\/56620806","name":"Groningen","lat":"53.2192","lng":"6.56667","exid":"http:\/\/sws.geonames.org\/2755251\/","cname":"Nederland","cexid":"http:\/\/sws.geonames.org\/2750405\/","pname":"Groningen","pexid":"http:\/\/sws.geonames.org\/2755251\/","mname":"Gemeente Groningen","mexid":"http:\/\/sws.geonames.org\/2755250\/","prname":"Groningen","prexid":"http:\/\/sws.geonames.org\/2755249\/"}
{"obid":"niod:2759316","dcid":"http:\/\/www.oorloginblik.nl\/lijst\/56618752","name":"Bergen-Belsen, Duitsland","lat":"52.7587","lng":"9.90657","exid":"http:\/\/sws.geonames.org\/3206558\/","cname":"Duitsland","cexid":"http:\/\/sws.geonames.org\/2921044\/"}
{"obid":"niod:2759317","dcid":"http:\/\/www.oorloginblik.nl\/lijst\/56618291","name":"Zwitserland","lat":"47.0002","lng":"8.01427","exid":"http:\/\/sws.geonames.org\/2658434\/","cname":"Zwitserland","cexid":"http:\/\/sws.geonames.org\/2658434\/"}
{"obid":"niod:2759317","dcid":"http:\/\/www.oorloginblik.nl\/lijst\/56618291","name":"Groningen","lat":"53.2192","lng":"6.56667","exid":"http:\/\/sws.geonames.org\/2755251\/","cname":"Nederland","cexid":"http:\/\/sws.geonames.org\/2750405\/","pname":"Groningen","pexid":"http:\/\/sws.geonames.org\/2755251\/","mname":"Gemeente Groningen","mexid":"http:\/\/sws.geonames.org\/2755250\/","prname":"Groningen","prexid":"http:\/\/sws.geonames.org\/2755249\/"}
{"obid":"niod:2759319","dcid":"http:\/\/www.oorloginblik.nl\/lijst\/56617931","name":"Hereweg , Groningen, Nederland","lat":"53.2065","lng":"6.57359","exid":"bag\/14300010785214","cname":"Nederland","cexid":"http:\/\/sws.geonames.org\/2750405\/","pname":"Groningen","pexid":"http:\/\/sws.geonames.org\/2755251\/","mname":"Gemeente Groningen","mexid":"http:\/\/sws.geonames.org\/2755250\/","prname":"Groningen","prexid":"http:\/\/sws.geonames.org\/2755249\/"}
{"obid":"niod:2759320","dcid":"http:\/\/www.oorloginblik.nl\/lijst\/56617889","name":"Wenen, Oostenrijk","lat":"48.2085","lng":"16.3721","exid":"http:\/\/sws.geonames.org\/2761369\/","cname":"Oostenrijk","cexid":"http:\/\/sws.geonames.org\/2782113\/"}
{"obid":"niod:2759320","dcid":"http:\/\/www.oorloginblik.nl\/lijst\/56617889","name":"Zeeland","lat":"51.4167","lng":"3.75","exid":"http:\/\/sws.geonames.org\/2744011\/","cname":"Nederland","cexid":"http:\/\/sws.geonames.org\/2750405\/","mexid":"http:\/\/sws.geonames.org\/\/","prname":"Zeeland","prexid":"http:\/\/sws.geonames.org\/2744011\/"}
{"obid":"niod:2759321","dcid":"http:\/\/www.oorloginblik.nl\/lijst\/56617075","name":"Hellendoorn, Overijssel","lat":"52.3883","lng":"6.45139","exid":"http:\/\/sws.geonames.org\/2754457\/","cname":"Nederland","cexid":"http:\/\/sws.geonames.org\/2750405\/","pname":"Hellendoorn","pexid":"http:\/\/sws.geonames.org\/2754457\/","mname":"Gemeente Hellendoorn","mexid":"http:\/\/sws.geonames.org\/2754456\/","prname":"Overijssel","prexid":"http:\/\/sws.geonames.org\/2748838\/"}
{"obid":"niod:2759321","dcid":"http:\/\/www.oorloginblik.nl\/lijst\/56617075","name":"Norg","lat":"53.0667","lng":"6.45833","exid":"http:\/\/sws.geonames.org\/2749796\/","cname":"Nederland","cexid":"http:\/\/sws.geonames.org\/2750405\/","pname":"Norg","pexid":"http:\/\/sws.geonames.org\/2749796\/","mname":"Gemeente Noordenveld","mexid":"http:\/\/sws.geonames.org\/6544287\/","prname":"Drenthe","prexid":"http:\/\/sws.geonames.org\/2756631\/"}
{"obid":"niod:2759324","dcid":"http:\/\/www.oorloginblik.nl\/lijst\/56621331","name":"Tilburg, Noord-Brabant","lat":"51.5555","lng":"5.0913","exid":"http:\/\/sws.geonames.org\/2746301\/","cname":"Nederland","cexid":"http:\/\/sws.geonames.org\/2750405\/","pname":"Tilburg","pexid":"http:\/\/sws.geonames.org\/2746301\/","mname":"Gemeente Tilburg","mexid":"http:\/\/sws.geonames.org\/2746300\/","prname":"Noord-Brabant","prexid":"http:\/\/sws.geonames.org\/2749990\/"}
{"obid":"niod:2759324","dcid":"http:\/\/www.oorloginblik.nl\/lijst\/56621331","name":"Leuven, Belgi\u00eb","lat":"50.8796","lng":"4.70093","exid":"http:\/\/sws.geonames.org\/2792482\/","cname":"Belgi\u00eb","cexid":"http:\/\/sws.geonames.org\/2802361\/"}
{"obid":"niod:2759324","dcid":"http:\/\/www.oorloginblik.nl\/lijst\/56621331","name":"Usquert","lat":"53.4025","lng":"6.61111","exid":"http:\/\/sws.geonames.org\/2745918\/","cname":"Nederland","cexid":"http:\/\/sws.geonames.org\/2750405\/","pname":"Usquert","pexid":"http:\/\/sws.geonames.org\/2745918\/","mname":"Gemeente Eemsmond","mexid":"http:\/\/sws.geonames.org\/6544278\/","prname":"Provincie Groningen","prexid":"http:\/\/sws.geonames.org\/2755249\/"}
{"obid":"niod:2759324","dcid":"http:\/\/www.oorloginblik.nl\/lijst\/56621331","name":"Molenvliet","lat":"51.5417","lng":"4.20833","exid":"http:\/\/sws.geonames.org\/2750653\/","cname":"Nederland","cexid":"http:\/\/sws.geonames.org\/2750405\/","pname":"Molenvliet","pexid":"http:\/\/sws.geonames.org\/2750653\/","mname":"Tholen","mexid":"http:\/\/sws.geonames.org\/2746350\/","prname":"Zeeland","prexid":"http:\/\/sws.geonames.org\/2744011\/"}
{"obid":"niod:2759327","dcid":"http:\/\/www.oorloginblik.nl\/lijst\/56623378","name":"Walcheren","lat":"51.5197","lng":"3.57993","exid":"http:\/\/sws.geonames.org\/2745077\/","cname":"Nederland","cexid":"http:\/\/sws.geonames.org\/2750405\/","mexid":"http:\/\/sws.geonames.org\/\/","prname":"Zeeland","prexid":"http:\/\/sws.geonames.org\/2744011\/"}
{"obid":"niod:2759327","dcid":"http:\/\/www.oorloginblik.nl\/lijst\/56623378","name":"Veldhoven, Noord-Brabant","lat":"51.4183","lng":"5.40278","exid":"http:\/\/sws.geonames.org\/2745706\/","cname":"Nederland","cexid":"http:\/\/sws.geonames.org\/2750405\/","pname":"Veldhoven","pexid":"http:\/\/sws.geonames.org\/2745706\/","mname":"Gemeente Veldhoven","mexid":"http:\/\/sws.geonames.org\/2745704\/","prname":"Noord-Brabant","prexid":"http:\/\/sws.geonames.org\/2749990\/"}
{"obid":"niod:2759327","dcid":"http:\/\/www.oorloginblik.nl\/lijst\/56623378","name":"Wildervank","lat":"53.0808","lng":"6.8625","exid":"http:\/\/sws.geonames.org\/2744431\/","cname":"Nederland","cexid":"http:\/\/sws.geonames.org\/2750405\/","pname":"Wildervank","pexid":"http:\/\/sws.geonames.org\/2744431\/","mname":"Gemeente Veendam","mexid":"http:\/\/sws.geonames.org\/2745782\/","prname":"Groningen","prexid":"http:\/\/sws.geonames.org\/2755249\/"}
{"obid":"niod:2759327","dcid":"http:\/\/www.oorloginblik.nl\/lijst\/56623378","name":"Duitsland","lat":"51.5","lng":"10.5","exid":"http:\/\/sws.geonames.org\/2921044\/","cname":"Duitsland","cexid":"http:\/\/sws.geonames.org\/2921044\/"}
{"obid":"niod:2759328","dcid":"http:\/\/www.oorloginblik.nl\/lijst\/56623357","name":"Ruinen","lat":"52.7625","lng":"6.35417","exid":"http:\/\/sws.geonames.org\/2747835\/","cname":"Nederland","cexid":"http:\/\/sws.geonames.org\/2750405\/","pname":"Ruinen","pexid":"http:\/\/sws.geonames.org\/2747835\/","mname":"De Wolden","mexid":"http:\/\/sws.geonames.org\/6544227\/","prname":"Drenthe","prexid":"http:\/\/sws.geonames.org\/2756631\/"}
{"obid":"niod:2759328","dcid":"http:\/\/www.oorloginblik.nl\/lijst\/56623357","name":"Enschede, Overijssel","lat":"52.2183","lng":"6.89583","exid":"http:\/\/sws.geonames.org\/2756071\/","cname":"Nederland","cexid":"http:\/\/sws.geonames.org\/2750405\/","pname":"Enschede","pexid":"http:\/\/sws.geonames.org\/2756071\/","mname":"Gemeente Enschede","mexid":"http:\/\/sws.geonames.org\/2756070\/","prname":"Overijssel","prexid":"http:\/\/sws.geonames.org\/2748838\/"}
{"obid":"niod:2759328","dcid":"http:\/\/www.oorloginblik.nl\/lijst\/56623357","name":"Walcheren","lat":"51.5197","lng":"3.57993","exid":"http:\/\/sws.geonames.org\/2745077\/","cname":"Nederland","cexid":"http:\/\/sws.geonames.org\/2750405\/","mexid":"http:\/\/sws.geonames.org\/\/","prname":"Zeeland","prexid":"http:\/\/sws.geonames.org\/2744011\/"}
{"obid":"niod:2759328","dcid":"http:\/\/www.oorloginblik.nl\/lijst\/56623357","name":"Ruinen","lat":"52.7625","lng":"6.35417","exid":"http:\/\/sws.geonames.org\/2747835\/","cname":"Nederland","cexid":"http:\/\/sws.geonames.org\/2750405\/","pname":"Ruinen","pexid":"http:\/\/sws.geonames.org\/2747835\/","mname":"De Wolden","mexid":"http:\/\/sws.geonames.org\/6544227\/","prname":"Drenthe","prexid":"http:\/\/sws.geonames.org\/2756631\/"}
{"obid":"niod:2759328","dcid":"http:\/\/www.oorloginblik.nl\/lijst\/56623357","name":"Zeegse","lat":"53.0683","lng":"6.64583","exid":"http:\/\/sws.geonames.org\/2744021\/","cname":"Nederland","cexid":"http:\/\/sws.geonames.org\/2750405\/","pname":"Zeegse","pexid":"http:\/\/sws.geonames.org\/2744021\/","mname":"Gemeente Tynaarlo","mexid":"http:\/\/sws.geonames.org\/6544282\/","prname":"Drenthe","prexid":"http:\/\/sws.geonames.org\/2756631\/"}
{"obid":"niod:2759328","dcid":"http:\/\/www.oorloginblik.nl\/lijst\/56623357","name":"Wildervank","lat":"53.0808","lng":"6.8625","exid":"http:\/\/sws.geonames.org\/2744431\/","cname":"Nederland","cexid":"http:\/\/sws.geonames.org\/2750405\/","pname":"Wildervank","pexid":"http:\/\/sws.geonames.org\/2744431\/","mname":"Gemeente Veendam","mexid":"http:\/\/sws.geonames.org\/2745782\/","prname":"Groningen","prexid":"http:\/\/sws.geonames.org\/2755249\/"}
{"obid":"niod:2759328","dcid":"http:\/\/www.oorloginblik.nl\/lijst\/56623357","name":"Ameland","lat":"53.4502","lng":"5.78277","exid":"http:\/\/sws.geonames.org\/2759844\/","cname":"Nederland","cexid":"http:\/\/sws.geonames.org\/2750405\/","mname":"Ameland","mexid":"http:\/\/sws.geonames.org\/2759844\/","prname":"Friesland","prexid":"http:\/\/sws.geonames.org\/2755812\/"}
{"obid":"niod:2759329","dcid":"http:\/\/www.oorloginblik.nl\/lijst\/56623082","name":"Middelburg","lat":"51.5","lng":"3.61389","exid":"http:\/\/sws.geonames.org\/2750896\/","cname":"Nederland","cexid":"http:\/\/sws.geonames.org\/2750405\/","mname":"Middelburg","mexid":"http:\/\/sws.geonames.org\/2750894\/","prname":"Zeeland","prexid":"http:\/\/sws.geonames.org\/2744011\/"}
{"obid":"niod:2759331","dcid":"http:\/\/www.oorloginblik.nl\/lijst\/56622037","name":"Cincinnati","lat":"39.162","lng":"-84.4569","exid":"http:\/\/sws.geonames.org\/4508722\/","cname":"Verenigde Staten","cexid":"http:\/\/sws.geonames.org\/6252001\/","pname":"Cincinnati","pexid":"http:\/\/sws.geonames.org\/4508722\/"}
{"obid":"niod:2759331","dcid":"http:\/\/www.oorloginblik.nl\/lijst\/56622037","name":"Venlo, Limburg","lat":"51.37","lng":"6.16806","exid":"http:\/\/sws.geonames.org\/2745641\/","cname":"Nederland","cexid":"http:\/\/sws.geonames.org\/2750405\/","pname":"Venlo","pexid":"http:\/\/sws.geonames.org\/2745641\/","mname":"Gemeente Venlo","mexid":"http:\/\/sws.geonames.org\/2745640\/","prname":"Limburg","prexid":"http:\/\/sws.geonames.org\/2751596\/"}
{"obid":"niod:2759331","dcid":"http:\/\/www.oorloginblik.nl\/lijst\/56622037","name":"Groningen","lat":"53.2192","lng":"6.56667","exid":"http:\/\/sws.geonames.org\/2755251\/","cname":"Nederland","cexid":"http:\/\/sws.geonames.org\/2750405\/","pname":"Groningen","pexid":"http:\/\/sws.geonames.org\/2755251\/","mname":"Gemeente Groningen","mexid":"http:\/\/sws.geonames.org\/2755250\/","prname":"Groningen","prexid":"http:\/\/sws.geonames.org\/2755249\/"}
{"obid":"niod:2759332","dcid":"http:\/\/www.oorloginblik.nl\/lijst\/56621960","name":"Stadskanaal","lat":"52.9895","lng":"6.9504","exid":"http:\/\/sws.geonames.org\/2746860\/","cname":"Nederland","cexid":"http:\/\/sws.geonames.org\/2750405\/","pname":"Stadskanaal","pexid":"http:\/\/sws.geonames.org\/2746860\/","mname":"Gemeente Stadskanaal","mexid":"http:\/\/sws.geonames.org\/2746859\/","prname":"Groningen","prexid":"http:\/\/sws.geonames.org\/2755249\/"}
{"obid":"niod:2759333","dcid":"http:\/\/www.oorloginblik.nl\/lijst\/56621935","name":"Cincinnati","lat":"39.162","lng":"-84.4569","exid":"http:\/\/sws.geonames.org\/4508722\/","cname":"Verenigde Staten","cexid":"http:\/\/sws.geonames.org\/6252001\/","pname":"Cincinnati","pexid":"http:\/\/sws.geonames.org\/4508722\/"}
{"obid":"niod:2759333","dcid":"http:\/\/www.oorloginblik.nl\/lijst\/56621935","name":"Venlo, Limburg","lat":"51.37","lng":"6.16806","exid":"http:\/\/sws.geonames.org\/2745641\/","cname":"Nederland","cexid":"http:\/\/sws.geonames.org\/2750405\/","pname":"Venlo","pexid":"http:\/\/sws.geonames.org\/2745641\/","mname":"Gemeente Venlo","mexid":"http:\/\/sws.geonames.org\/2745640\/","prname":"Limburg","prexid":"http:\/\/sws.geonames.org\/2751596\/"}
{"obid":"niod:2759333","dcid":"http:\/\/www.oorloginblik.nl\/lijst\/56621935","name":"Groningen","lat":"53.2192","lng":"6.56667","exid":"http:\/\/sws.geonames.org\/2755251\/","cname":"Nederland","cexid":"http:\/\/sws.geonames.org\/2750405\/","pname":"Groningen","pexid":"http:\/\/sws.geonames.org\/2755251\/","mname":"Gemeente Groningen","mexid":"http:\/\/sws.geonames.org\/2755250\/","prname":"Groningen","prexid":"http:\/\/sws.geonames.org\/2755249\/"}
{"obid":"niod:2759334","dcid":"http:\/\/www.oorloginblik.nl\/lijst\/56621752","name":"Cincinnati","lat":"39.162","lng":"-84.4569","exid":"http:\/\/sws.geonames.org\/4508722\/","cname":"Verenigde Staten","cexid":"http:\/\/sws.geonames.org\/6252001\/","pname":"Cincinnati","pexid":"http:\/\/sws.geonames.org\/4508722\/"}
{"obid":"niod:2759334","dcid":"http:\/\/www.oorloginblik.nl\/lijst\/56621752","name":"Venlo, Limburg","lat":"51.37","lng":"6.16806","exid":"http:\/\/sws.geonames.org\/2745641\/","cname":"Nederland","cexid":"http:\/\/sws.geonames.org\/2750405\/","pname":"Venlo","pexid":"http:\/\/sws.geonames.org\/2745641\/","mname":"Gemeente Venlo","mexid":"http:\/\/sws.geonames.org\/2745640\/","prname":"Limburg","prexid":"http:\/\/sws.geonames.org\/2751596\/"}
{"obid":"niod:2759334","dcid":"http:\/\/www.oorloginblik.nl\/lijst\/56621752","name":"Cuijk, Noord-Brabant","lat":"51.7308","lng":"5.87917","exid":"http:\/\/sws.geonames.org\/2757874\/","cname":"Nederland","cexid":"http:\/\/sws.geonames.org\/2750405\/","pname":"Cuijk","pexid":"http:\/\/sws.geonames.org\/2757874\/","mname":"Gemeente Cuijk","mexid":"http:\/\/sws.geonames.org\/2757873\/","prname":"Noord-Brabant","prexid":"http:\/\/sws.geonames.org\/2749990\/"}
{"obid":"niod:2759334","dcid":"http:\/\/www.oorloginblik.nl\/lijst\/56621752","name":"Den Andel","lat":"53.3925","lng":"6.50833","exid":"http:\/\/sws.geonames.org\/2757257\/","cname":"Nederland","cexid":"http:\/\/sws.geonames.org\/2750405\/","pname":"Den Andel","pexid":"http:\/\/sws.geonames.org\/2757257\/","mname":"Gemeente Winsum","mexid":"http:\/\/sws.geonames.org\/2744336\/","prname":"Groningen","prexid":"http:\/\/sws.geonames.org\/2755249\/"}
{"obid":"niod:2759335","dcid":"http:\/\/www.oorloginblik.nl\/lijst\/56621377","name":"Overloon","lat":"51.5717","lng":"5.94722","exid":"http:\/\/sws.geonames.org\/2748833\/","cname":"Nederland","cexid":"http:\/\/sws.geonames.org\/2750405\/","pname":"Overloon","pexid":"http:\/\/sws.geonames.org\/2748833\/","mname":"Gemeente Boxmeer","mexid":"http:\/\/sws.geonames.org\/2758461\/","prname":"Noord-Brabant","prexid":"http:\/\/sws.geonames.org\/2749990\/"}
{"obid":"niod:2759335","dcid":"http:\/\/www.oorloginblik.nl\/lijst\/56621377","name":"Overloon","lat":"51.5717","lng":"5.94722","exid":"http:\/\/sws.geonames.org\/2748833\/","cname":"Nederland","cexid":"http:\/\/sws.geonames.org\/2750405\/","pname":"Overloon","pexid":"http:\/\/sws.geonames.org\/2748833\/","mname":"Gemeente Boxmeer","mexid":"http:\/\/sws.geonames.org\/2758461\/","prname":"Noord-Brabant","prexid":"http:\/\/sws.geonames.org\/2749990\/"}
{"obid":"niod:2759335","dcid":"http:\/\/www.oorloginblik.nl\/lijst\/56621377","name":"Tilburg, Noord-Brabant","lat":"51.5555","lng":"5.0913","exid":"http:\/\/sws.geonames.org\/2746301\/","cname":"Nederland","cexid":"http:\/\/sws.geonames.org\/2750405\/","pname":"Tilburg","pexid":"http:\/\/sws.geonames.org\/2746301\/","mname":"Gemeente Tilburg","mexid":"http:\/\/sws.geonames.org\/2746300\/","prname":"Noord-Brabant","prexid":"http:\/\/sws.geonames.org\/2749990\/"}
{"obid":"niod:2759335","dcid":"http:\/\/www.oorloginblik.nl\/lijst\/56621377","name":"Mill, Noord-Brabant","lat":"51.6883","lng":"5.77917","exid":"http:\/\/sws.geonames.org\/2750802\/","cname":"Nederland","cexid":"http:\/\/sws.geonames.org\/2750405\/","pname":"Mill","pexid":"http:\/\/sws.geonames.org\/2750802\/","mname":"Gemeente Mill en Sint Hubert","mexid":"http:\/\/sws.geonames.org\/2750800\/","prname":"Noord-Brabant","prexid":"http:\/\/sws.geonames.org\/2749990\/"}
{"obid":"niod:2759335","dcid":"http:\/\/www.oorloginblik.nl\/lijst\/56621377","name":"Batavia","lat":"-6.21462","lng":"106.845","exid":"http:\/\/sws.geonames.org\/1642911\/","cname":"Indonesi\u00eb","cexid":"http:\/\/sws.geonames.org\/1643084\/"}
{"obid":"niod:2759335","dcid":"http:\/\/www.oorloginblik.nl\/lijst\/56621377","name":"Usquert","lat":"53.4025","lng":"6.61111","exid":"http:\/\/sws.geonames.org\/2745918\/","cname":"Nederland","cexid":"http:\/\/sws.geonames.org\/2750405\/","pname":"Usquert","pexid":"http:\/\/sws.geonames.org\/2745918\/","mname":"Gemeente Eemsmond","mexid":"http:\/\/sws.geonames.org\/6544278\/","prname":"Provincie Groningen","prexid":"http:\/\/sws.geonames.org\/2755249\/"}
{"obid":"niod:2759335","dcid":"http:\/\/www.oorloginblik.nl\/lijst\/56621377","name":"Pasar Ikan","lat":"-6.11667","lng":"106.8","exid":"http:\/\/sws.geonames.org\/1632231\/","cname":"Indonesi\u00eb","cexid":"http:\/\/sws.geonames.org\/1643084\/"}
{"obid":"niod:2759336","dcid":"http:\/\/www.oorloginblik.nl\/lijst\/56621837","name":"Cincinnati","lat":"39.162","lng":"-84.4569","exid":"http:\/\/sws.geonames.org\/4508722\/","cname":"Verenigde Staten","cexid":"http:\/\/sws.geonames.org\/6252001\/","pname":"Cincinnati","pexid":"http:\/\/sws.geonames.org\/4508722\/"}
{"obid":"niod:2759336","dcid":"http:\/\/www.oorloginblik.nl\/lijst\/56621837","name":"Venlo, Limburg","lat":"51.37","lng":"6.16806","exid":"http:\/\/sws.geonames.org\/2745641\/","cname":"Nederland","cexid":"http:\/\/sws.geonames.org\/2750405\/","pname":"Venlo","pexid":"http:\/\/sws.geonames.org\/2745641\/","mname":"Gemeente Venlo","mexid":"http:\/\/sws.geonames.org\/2745640\/","prname":"Limburg","prexid":"http:\/\/sws.geonames.org\/2751596\/"}
{"obid":"niod:2759336","dcid":"http:\/\/www.oorloginblik.nl\/lijst\/56621837","name":"Groningen","lat":"53.2192","lng":"6.56667","exid":"http:\/\/sws.geonames.org\/2755251\/","cname":"Nederland","cexid":"http:\/\/sws.geonames.org\/2750405\/","pname":"Groningen","pexid":"http:\/\/sws.geonames.org\/2755251\/","mname":"Gemeente Groningen","mexid":"http:\/\/sws.geonames.org\/2755250\/","prname":"Groningen","prexid":"http:\/\/sws.geonames.org\/2755249\/"}
{"obid":"niod:2759337","dcid":"http:\/\/www.oorloginblik.nl\/lijst\/56621395","name":"Tilburg, Noord-Brabant","lat":"51.5555","lng":"5.0913","exid":"http:\/\/sws.geonames.org\/2746301\/","cname":"Nederland","cexid":"http:\/\/sws.geonames.org\/2750405\/","pname":"Tilburg","pexid":"http:\/\/sws.geonames.org\/2746301\/","mname":"Gemeente Tilburg","mexid":"http:\/\/sws.geonames.org\/2746300\/","prname":"Noord-Brabant","prexid":"http:\/\/sws.geonames.org\/2749990\/"}
{"obid":"niod:2759337","dcid":"http:\/\/www.oorloginblik.nl\/lijst\/56621395","name":"Grebbeberg, Nederland","lat":"51.9537","lng":"5.59494","exid":"http:\/\/sws.geonames.org\/2755351\/","cname":"Nederland","cexid":"http:\/\/sws.geonames.org\/2750405\/","mname":"Rhenen","mexid":"http:\/\/sws.geonames.org\/2748184\/","prname":"Utrecht","prexid":"http:\/\/sws.geonames.org\/2745909\/"}
{"obid":"niod:2759337","dcid":"http:\/\/www.oorloginblik.nl\/lijst\/56621395","name":"Usquert","lat":"53.4025","lng":"6.61111","exid":"http:\/\/sws.geonames.org\/2745918\/","cname":"Nederland","cexid":"http:\/\/sws.geonames.org\/2750405\/","pname":"Usquert","pexid":"http:\/\/sws.geonames.org\/2745918\/","mname":"Gemeente Eemsmond","mexid":"http:\/\/sws.geonames.org\/6544278\/","prname":"Provincie Groningen","prexid":"http:\/\/sws.geonames.org\/2755249\/"}
{"obid":"niod:2759338","dcid":"http:\/\/www.oorloginblik.nl\/lijst\/56621550","name":"Formosa","lat":"-26.1775","lng":"-58.1781","exid":"http:\/\/sws.geonames.org\/3433899\/","cname":"Argentini\u00eb","cexid":"http:\/\/sws.geonames.org\/3865483\/","pname":"Formosa","pexid":"http:\/\/sws.geonames.org\/3433899\/"}
{"obid":"niod:2759338","dcid":"http:\/\/www.oorloginblik.nl\/lijst\/56621550","name":"Blerick, Limburg","lat":"51.3717","lng":"6.14861","exid":"http:\/\/sws.geonames.org\/2758831\/","cname":"Nederland","cexid":"http:\/\/sws.geonames.org\/2750405\/","pname":"Blerick","pexid":"http:\/\/sws.geonames.org\/2758831\/","mname":"Venlo","mexid":"http:\/\/sws.geonames.org\/2745640\/","prname":"Limburg","prexid":"http:\/\/sws.geonames.org\/2751596\/"}
{"obid":"niod:2759339","dcid":"http:\/\/www.oorloginblik.nl\/lijst\/56621402","name":"Overloon","lat":"51.5717","lng":"5.94722","exid":"http:\/\/sws.geonames.org\/2748833\/","cname":"Nederland","cexid":"http:\/\/sws.geonames.org\/2750405\/","pname":"Overloon","pexid":"http:\/\/sws.geonames.org\/2748833\/","mname":"Gemeente Boxmeer","mexid":"http:\/\/sws.geonames.org\/2758461\/","prname":"Noord-Brabant","prexid":"http:\/\/sws.geonames.org\/2749990\/"}
{"obid":"niod:2759339","dcid":"http:\/\/www.oorloginblik.nl\/lijst\/56621402","name":"Overloon","lat":"51.5717","lng":"5.94722","exid":"http:\/\/sws.geonames.org\/2748833\/","cname":"Nederland","cexid":"http:\/\/sws.geonames.org\/2750405\/","pname":"Overloon","pexid":"http:\/\/sws.geonames.org\/2748833\/","mname":"Gemeente Boxmeer","mexid":"http:\/\/sws.geonames.org\/2758461\/","prname":"Noord-Brabant","prexid":"http:\/\/sws.geonames.org\/2749990\/"}
{"obid":"niod:2759339","dcid":"http:\/\/www.oorloginblik.nl\/lijst\/56621402","name":"Tilburg, Noord-Brabant","lat":"51.5555","lng":"5.0913","exid":"http:\/\/sws.geonames.org\/2746301\/","cname":"Nederland","cexid":"http:\/\/sws.geonames.org\/2750405\/","pname":"Tilburg","pexid":"http:\/\/sws.geonames.org\/2746301\/","mname":"Gemeente Tilburg","mexid":"http:\/\/sws.geonames.org\/2746300\/","prname":"Noord-Brabant","prexid":"http:\/\/sws.geonames.org\/2749990\/"}
{"obid":"niod:2759339","dcid":"http:\/\/www.oorloginblik.nl\/lijst\/56621402","name":"Batavia","lat":"-6.21462","lng":"106.845","exid":"http:\/\/sws.geonames.org\/1642911\/","cname":"Indonesi\u00eb","cexid":"http:\/\/sws.geonames.org\/1643084\/"}
{"obid":"niod:2759339","dcid":"http:\/\/www.oorloginblik.nl\/lijst\/56621402","name":"Usquert","lat":"53.4025","lng":"6.61111","exid":"http:\/\/sws.geonames.org\/2745918\/","cname":"Nederland","cexid":"http:\/\/sws.geonames.org\/2750405\/","pname":"Usquert","pexid":"http:\/\/sws.geonames.org\/2745918\/","mname":"Gemeente Eemsmond","mexid":"http:\/\/sws.geonames.org\/6544278\/","prname":"Provincie Groningen","prexid":"http:\/\/sws.geonames.org\/2755249\/"}
{"obid":"niod:2759340","dcid":"http:\/\/www.oorloginblik.nl\/lijst\/56621612","name":"Boskoop","lat":"52.075","lng":"4.65556","exid":"http:\/\/sws.geonames.org\/2758547\/","cname":"Nederland","cexid":"http:\/\/sws.geonames.org\/2750405\/","pname":"Boskoop","pexid":"http:\/\/sws.geonames.org\/2758547\/","mname":"Gemeente Alphen aan den Rijn","mexid":"http:\/\/sws.geonames.org\/2759874\/","prname":"Zuid-Holland","prexid":"http:\/\/sws.geonames.org\/2743698\/"}
{"obid":"niod:2759340","dcid":"http:\/\/www.oorloginblik.nl\/lijst\/56621612","name":"Stadskanaal","lat":"52.9895","lng":"6.9504","exid":"http:\/\/sws.geonames.org\/2746860\/","cname":"Nederland","cexid":"http:\/\/sws.geonames.org\/2750405\/","pname":"Stadskanaal","pexid":"http:\/\/sws.geonames.org\/2746860\/","mname":"Gemeente Stadskanaal","mexid":"http:\/\/sws.geonames.org\/2746859\/","prname":"Groningen","prexid":"http:\/\/sws.geonames.org\/2755249\/"}
{"obid":"niod:2759341","dcid":"http:\/\/www.oorloginblik.nl\/lijst\/56621373","name":"Tilburg, Noord-Brabant","lat":"51.5555","lng":"5.0913","exid":"http:\/\/sws.geonames.org\/2746301\/","cname":"Nederland","cexid":"http:\/\/sws.geonames.org\/2750405\/","pname":"Tilburg","pexid":"http:\/\/sws.geonames.org\/2746301\/","mname":"Gemeente Tilburg","mexid":"http:\/\/sws.geonames.org\/2746300\/","prname":"Noord-Brabant","prexid":"http:\/\/sws.geonames.org\/2749990\/"}
{"obid":"niod:2759341","dcid":"http:\/\/www.oorloginblik.nl\/lijst\/56621373","name":"Usquert","lat":"53.4025","lng":"6.61111","exid":"http:\/\/sws.geonames.org\/2745918\/","cname":"Nederland","cexid":"http:\/\/sws.geonames.org\/2750405\/","pname":"Usquert","pexid":"http:\/\/sws.geonames.org\/2745918\/","mname":"Gemeente Eemsmond","mexid":"http:\/\/sws.geonames.org\/6544278\/","prname":"Provincie Groningen","prexid":"http:\/\/sws.geonames.org\/2755249\/"}
{"obid":"niod:2759342","dcid":"http:\/\/www.oorloginblik.nl\/lijst\/56623540","name":"Norg, Nederland","lat":"53.0667","lng":"6.45833","exid":"http:\/\/sws.geonames.org\/2749796\/","cname":"Nederland","cexid":"http:\/\/sws.geonames.org\/2750405\/","pname":"Norg","pexid":"http:\/\/sws.geonames.org\/2749796\/","mname":"Gemeente Noordenveld","mexid":"http:\/\/sws.geonames.org\/6544287\/","prname":"Drenthe","prexid":"http:\/\/sws.geonames.org\/2756631\/"}
{"obid":"niod:2759342","dcid":"http:\/\/www.oorloginblik.nl\/lijst\/56623540","name":"Wildervank, Nederland","lat":"53.0808","lng":"6.8625","exid":"http:\/\/sws.geonames.org\/2744431\/","cname":"Nederland","cexid":"http:\/\/sws.geonames.org\/2750405\/","pname":"Wildervank","pexid":"http:\/\/sws.geonames.org\/2744431\/","mname":"Gemeente Veendam","mexid":"http:\/\/sws.geonames.org\/2745782\/","prname":"Groningen","prexid":"http:\/\/sws.geonames.org\/2755249\/"}
{"obid":"niod:2759343","dcid":"http:\/\/www.oorloginblik.nl\/lijst\/56623528","name":"Walcheren","lat":"51.5197","lng":"3.57993","exid":"http:\/\/sws.geonames.org\/2745077\/","cname":"Nederland","cexid":"http:\/\/sws.geonames.org\/2750405\/","mexid":"http:\/\/sws.geonames.org\/\/","prname":"Zeeland","prexid":"http:\/\/sws.geonames.org\/2744011\/"}
{"obid":"niod:2759343","dcid":"http:\/\/www.oorloginblik.nl\/lijst\/56623528","name":"Wildervank","lat":"53.0808","lng":"6.8625","exid":"http:\/\/sws.geonames.org\/2744431\/","cname":"Nederland","cexid":"http:\/\/sws.geonames.org\/2750405\/","pname":"Wildervank","pexid":"http:\/\/sws.geonames.org\/2744431\/","mname":"Gemeente Veendam","mexid":"http:\/\/sws.geonames.org\/2745782\/","prname":"Groningen","prexid":"http:\/\/sws.geonames.org\/2755249\/"}
{"obid":"niod:2759344","dcid":"http:\/\/www.oorloginblik.nl\/lijst\/56623408","name":"Ruinen","lat":"52.7625","lng":"6.35417","exid":"http:\/\/sws.geonames.org\/2747835\/","cname":"Nederland","cexid":"http:\/\/sws.geonames.org\/2750405\/","pname":"Ruinen","pexid":"http:\/\/sws.geonames.org\/2747835\/","mname":"De Wolden","mexid":"http:\/\/sws.geonames.org\/6544227\/","prname":"Drenthe","prexid":"http:\/\/sws.geonames.org\/2756631\/"}
{"obid":"niod:2759344","dcid":"http:\/\/www.oorloginblik.nl\/lijst\/56623408","name":"Ruinen","lat":"52.7625","lng":"6.35417","exid":"http:\/\/sws.geonames.org\/2747835\/","cname":"Nederland","cexid":"http:\/\/sws.geonames.org\/2750405\/","pname":"Ruinen","pexid":"http:\/\/sws.geonames.org\/2747835\/","mname":"De Wolden","mexid":"http:\/\/sws.geonames.org\/6544227\/","prname":"Drenthe","prexid":"http:\/\/sws.geonames.org\/2756631\/"}
{"obid":"niod:2759344","dcid":"http:\/\/www.oorloginblik.nl\/lijst\/56623408","name":"Sliedrecht, Nederland","lat":"51.8208","lng":"4.77639","exid":"http:\/\/sws.geonames.org\/2747169\/","cname":"Nederland","cexid":"http:\/\/sws.geonames.org\/2750405\/","pname":"Sliedrecht","pexid":"http:\/\/sws.geonames.org\/2747169\/","mname":"Gemeente Sliedrecht","mexid":"http:\/\/sws.geonames.org\/2747168\/","prname":"Zuid-Holland","prexid":"http:\/\/sws.geonames.org\/2743698\/"}
{"obid":"niod:2759344","dcid":"http:\/\/www.oorloginblik.nl\/lijst\/56623408","name":"Ameland","lat":"53.4502","lng":"5.78277","exid":"http:\/\/sws.geonames.org\/2759844\/","cname":"Nederland","cexid":"http:\/\/sws.geonames.org\/2750405\/","mname":"Ameland","mexid":"http:\/\/sws.geonames.org\/2759844\/","prname":"Friesland","prexid":"http:\/\/sws.geonames.org\/2755812\/"}
{"obid":"niod:2759345","dcid":"http:\/\/www.oorloginblik.nl\/lijst\/56623488","name":"Ruinen","lat":"52.7625","lng":"6.35417","exid":"http:\/\/sws.geonames.org\/2747835\/","cname":"Nederland","cexid":"http:\/\/sws.geonames.org\/2750405\/","pname":"Ruinen","pexid":"http:\/\/sws.geonames.org\/2747835\/","mname":"De Wolden","mexid":"http:\/\/sws.geonames.org\/6544227\/","prname":"Drenthe","prexid":"http:\/\/sws.geonames.org\/2756631\/"}
{"obid":"niod:2759345","dcid":"http:\/\/www.oorloginblik.nl\/lijst\/56623488","name":"Ruinen","lat":"52.7625","lng":"6.35417","exid":"http:\/\/sws.geonames.org\/2747835\/","cname":"Nederland","cexid":"http:\/\/sws.geonames.org\/2750405\/","pname":"Ruinen","pexid":"http:\/\/sws.geonames.org\/2747835\/","mname":"De Wolden","mexid":"http:\/\/sws.geonames.org\/6544227\/","prname":"Drenthe","prexid":"http:\/\/sws.geonames.org\/2756631\/"}
{"obid":"niod:2759345","dcid":"http:\/\/www.oorloginblik.nl\/lijst\/56623488","name":"Ameland","lat":"53.4502","lng":"5.78277","exid":"http:\/\/sws.geonames.org\/2759844\/","cname":"Nederland","cexid":"http:\/\/sws.geonames.org\/2750405\/","mname":"Ameland","mexid":"http:\/\/sws.geonames.org\/2759844\/","prname":"Friesland","prexid":"http:\/\/sws.geonames.org\/2755812\/"}
{"obid":"niod:2759346","dcid":"http:\/\/www.oorloginblik.nl\/lijst\/56623451","name":"Walcheren","lat":"51.5197","lng":"3.57993","exid":"http:\/\/sws.geonames.org\/2745077\/","cname":"Nederland","cexid":"http:\/\/sws.geonames.org\/2750405\/","mexid":"http:\/\/sws.geonames.org\/\/","prname":"Zeeland","prexid":"http:\/\/sws.geonames.org\/2744011\/"}
{"obid":"niod:2759346","dcid":"http:\/\/www.oorloginblik.nl\/lijst\/56623451","name":"Wildervank","lat":"53.0808","lng":"6.8625","exid":"http:\/\/sws.geonames.org\/2744431\/","cname":"Nederland","cexid":"http:\/\/sws.geonames.org\/2750405\/","pname":"Wildervank","pexid":"http:\/\/sws.geonames.org\/2744431\/","mname":"Gemeente Veendam","mexid":"http:\/\/sws.geonames.org\/2745782\/","prname":"Groningen","prexid":"http:\/\/sws.geonames.org\/2755249\/"}
{"obid":"niod:2759347","dcid":"http:\/\/www.oorloginblik.nl\/lijst\/56625377","name":"Ter Apel","lat":"52.8767","lng":"7.05972","exid":"http:\/\/sws.geonames.org\/2746475\/","cname":"Nederland","cexid":"http:\/\/sws.geonames.org\/2750405\/","pname":"Ter Apel","pexid":"http:\/\/sws.geonames.org\/2746475\/","mname":"Gemeente Vlagtwedde","mexid":"http:\/\/sws.geonames.org\/2745460\/","prname":"Groningen","prexid":"http:\/\/sws.geonames.org\/2755249\/"}
{"obid":"niod:2759348","dcid":"http:\/\/www.oorloginblik.nl\/lijst\/56624800","name":"Voorburg, Zuid-Holland","lat":"52.0742","lng":"4.35972","exid":"http:\/\/sws.geonames.org\/2745321\/","cname":"Nederland","cexid":"http:\/\/sws.geonames.org\/2750405\/","pname":"Voorburg","pexid":"http:\/\/sws.geonames.org\/2745321\/","mname":"Gemeente Leidschendam-Voorburg","mexid":"http:\/\/sws.geonames.org\/6544252\/","prname":"Zuid-Holland","prexid":"http:\/\/sws.geonames.org\/2743698\/"}
{"obid":"niod:2759348","dcid":"http:\/\/www.oorloginblik.nl\/lijst\/56624800","name":"Hengelo, Overijssel","lat":"52.2658","lng":"6.79306","exid":"http:\/\/sws.geonames.org\/2754394\/","cname":"Nederland","cexid":"http:\/\/sws.geonames.org\/2750405\/","pname":"Hengelo","pexid":"http:\/\/sws.geonames.org\/2754394\/","mname":"Gemeente Hengelo","mexid":"http:\/\/sws.geonames.org\/2754392\/","prname":"Overijssel","prexid":"http:\/\/sws.geonames.org\/2748838\/"}
{"obid":"niod:2759348","dcid":"http:\/\/www.oorloginblik.nl\/lijst\/56624800","name":"Delfzijl","lat":"53.33","lng":"6.91806","exid":"http:\/\/sws.geonames.org\/2757340\/","cname":"Nederland","cexid":"http:\/\/sws.geonames.org\/2750405\/","pname":"Delfzijl","pexid":"http:\/\/sws.geonames.org\/2757340\/","mname":"Gemeente Delfzijl","mexid":"http:\/\/sws.geonames.org\/2757339\/","prname":"Groningen","prexid":"http:\/\/sws.geonames.org\/2755249\/"}
